"stop_id","stop_code","stop_name","stop_desc","stop_lat","stop_lon","location_type","parent_station","wheelchair_boarding","platform_code"
000000100870,"","Aachen Hbf",,"50.767690000000","6.091071000000",0,,0,""
000000669490,"","Au(Sieg)",,"50.773765000000","7.656537000000",0,,0,""
000000671690,"","Schwelm",,"51.290526000000","7.289681000000",0,,0,""
000000680290,"","Betzdorf(Sieg)",,"50.789294000000","7.870050000000",0,,0,""
000000669890,"","Bochum Hbf",,"51.478609000000","7.223275000000",0,,0,""
000000672290,"","Siegen Hbf",,"50.875939000000","8.016508000000",0,,0,""
000000670290,"","Dortmund Hbf",,"51.517896000000","7.459290000000",0,,0,""
000000660490,"","Düsseldorf Flughafen",,"51.292009000000","6.786836000000",0,,0,""
000000228670,"","Düren",,"50.809517000000","6.482451000000",0,,0,""
000000256390,"","Düsseldorf Hbf",,"51.219962000000","6.794319000000",0,,0,""
000000660890,"","Duisburg Hbf",,"51.429785000000","6.775903000000",0,,0,""
000000661890,"","Essen Hbf",,"51.451355000000","7.014793000000",0,,0,""
000000662390,"","Essen-Steele",,"51.450684000000","7.075552000000",0,,0,""
000000308390,"","Euskirchen, Bf",,"50.657760000000","6.792193000000",0,,0,""
000000309690,"","Gelsenkirchen Hbf",,"51.504903000000","7.102455000000",0,,0,""
000000667290,"","Troisdorf",,"50.813922000000","7.150892000000",0,,0,""
000000670890,"","Hagen Hbf",,"51.362747000000","7.460249000000",0,,0,""
000000671090,"","Hamm(Westf)Hbf",,"51.678078000000","7.807821000000",0,,0,""
000000407490,"","Herne",,"51.543652000000","7.217830000000",0,,0,""
000000665090,"","Viersen",,"51.254947000000","6.403896000000",0,,0,""
000000438790,"","Horrem",,"50.916249000000","6.713497000000",0,,0,""
000000418870,"","Jülich",,"50.918837000000","6.368114000000",0,,0,""
000000440590,"","Köln Hbf",,"50.943030000000","6.958729000000",0,,0,""
000000440390,"","Köln-Ehrenfeld",,"50.951533000000","6.917276000000",0,,0,""
000000666890,"","Köln-Mülheim",,"50.957986000000","7.013295000000",0,,0,""
000000662090,"","Krefeld Hbf",,"51.325717000000","6.569885000000",0,,0,""
000000662890,"","Krefeld-Oppum",,"51.329749000000","6.610090000000",0,,0,""
000000671290,"","Witten Hbf",,"51.435544000000","7.329442000000",0,,0,""
000000478690,"","Mönchengladbach, Hbf",,"51.196583000000","6.446111000000",0,,0,""
000000663290,"","Mülheim(Ruhr)Hbf",,"51.431342000000","6.886510000000",0,,0,""
000000664090,"","Wuppertal Hbf",,"51.254363000000","7.149543000000",0,,0,""
000000489590,"","Neuss Hbf",,"51.204351000000","6.684527000000",0,,0,""
000000509090,"","Oberhausen Hbf",,"51.474878000000","6.851588000000",0,,0,""
000000661490,"","Rheinhausen",,"51.393507000000","6.706484000000",0,,0,""
000000477590,"","Rheydt Hbf",,"51.163027000000","6.439564000000",0,,0,""
000000576670,"","Stolberg(Rheinl)Hbf",,"50.794480000000","6.217478000000",0,,0,""
000000108690,"","Aachen West",,"50.780360000000","6.070715000000",0,,0,""
000000164690,"","Aachen-Rothe Erde",,"50.770202000000","6.116475000000",0,,0,""
000000681090,"","Kirchen",,"50.806576000000","7.880509000000",0,,0,""
000000664890,"","Anrath",,"51.285536000000","6.450230000000",0,,0,""
000000620870,"","Arsbeck",,"51.151978000000","6.207082000000",0,,0,""
000000389690,"","Hückelhoven-Baal",,"51.032974000000","6.272807000000",0,,0,""
000000663390,"","Mülheim(Ruhr)Styrum",,"51.449203000000","6.852636000000",0,,0,""
000000667370,"","Opladen",,"51.066257000000","7.008704000000",0,,0,""
000000668090,"","Blankenberg(Sieg)",,"50.768476000000","7.348499000000",0,,0,""
000000680890,"","Brachbach",,"50.821987000000","7.941492000000",0,,0,""
000000386690,"","Brachelen",,"51.007824000000","6.231463000000",0,,0,""
000000489690,"","Büttgen",,"51.197208000000","6.605785000000",0,,0,""
000000438290,"","Buir",,"50.862401000000","6.574514000000",0,,0,""
000000623490,"","Dalheim",,"51.149143000000","6.178597000000",0,,0,""
000000669290,"","Dattenfeld(Sieg)",,"50.809160000000","7.546252000000",0,,0,""
000000670490,"","Dortmund-Scharnhorst",,"51.538373000000","7.536564000000",0,,0,""
000000670690,"","Dortmund-Kurl",,"51.556979000000","7.585291000000",0,,0,""
000000660690,"","Düsseldorf Flughafen Terminal",,"51.278517000000","6.766979000000",0,,0,""
000000660290,"","Düsseldorf-Benrath",,"51.162293000000","6.878931000000",0,,0,""
000000256890,"","Düsseldorf-Bilk",,"51.207994000000","6.775578000000",0,,0,""
000000256690,"","Düsseldorf Völklinger Straße",,"51.210208000000","6.760431000000",0,,0,""
000000661090,"","Duisburg-Hochfeld Süd",,"51.409000000000","6.753408000000",0,,0,""
000000126070,"","Eilendorf",,"50.785568000000","6.154551000000",0,,0,""
000000672490,"","Eiserfeld (Sieg)",,"50.847299000000","7.987071000000",0,,0,""
000000668490,"","Eitorf",,"50.773619000000","7.447326000000",0,,0,""
000000671490,"","Ennepetal",,"51.304778000000","7.343533000000",0,,0,""
000000264870,"","Erkelenz",,"51.076564000000","6.321720000000",0,,0,""
000000282870,"","Eschweiler Hbf",,"50.813619000000","6.251716000000",0,,0,""
000000283690,"","Eschweiler-West",,"50.817712000000","6.251721000000",0,,0,""
000000286090,"","Eschweiler Talbahnhof",,"50.814800000000","6.263205000000",0,,0,""
000000293290,"","Eschweiler-Nothberg",,"50.812768000000","6.293563000000",0,,0,""
000000302090,"","Eschweiler-Weisweiler",,"50.823942000000","6.320055000000",0,,0,""
000000662198,"","Essen West",,"51.454497000000","6.979798000000",0,,0,""
000000661990,"","Essen-Altenessen",,"51.484522000000","7.010311000000",0,,0,""
000000680690,"","Etzbach",,"50.781323000000","7.688659000000",0,,0,""
000000663090,"","Forsthaus",,"51.303412000000","6.503498000000",0,,0,""
000000322070,"","Geilenkirchen",,"50.961039000000","6.124518000000",0,,0,""
000000671890,"","Gevelsberg Hbf",,"51.324399000000","7.339760000000",0,,0,""
000000309590,"","Frechen-Königsdorf",,"50.936501000000","6.777846000000",0,,0,""
000000667890,"","Hennef(Sieg)",,"50.773332000000","7.284592000000",0,,0,""
000000668890,"","Herchen",,"50.771269000000","7.521349000000",0,,0,""
000000476990,"","Mönchengladbach, Herrath Bf",,"51.104316000000","6.367399000000",0,,0,""
000000376470,"","Herzogenrath-Alt-Merkstein",,"50.885434000000","6.100999000000",0,,0,""
000000369070,"","Herzogenrath",,"50.870711000000","6.094408000000",0,,0,""
000000376870,"","Herzogenrath-August-Schmidt-Platz",,"50.887158000000","6.119268000000",0,,0,""
000000662690,"","Krefeld-Hohenbudberg Chempark",,"51.373529000000","6.664460000000",0,,0,""
000000672690,"","Kamen",,"51.585224000000","7.661000000000",0,,0,""
000000672890,"","Kamen-Methler",,"51.567379000000","7.613056000000",0,,0,""
000000666490,"","Köln Trimbornstraße",,"50.935857000000","6.996734000000",0,,0,""
000000664490,"","Kleinenbroich",,"51.195662000000","6.551972000000",0,,0,""
000000666090,"","Köln/Bonn Flughafen",,"50.878901000000","7.119302000000",0,,0,""
000000666690,"","Köln Frankfurter Straße",,"50.915219000000","7.051262000000",0,,0,""
000000440890,"","Köln Süd",,"50.927300000000","6.938059000000",0,,0,""
000000441090,"","Köln Messe/Deutz",,"50.941102000000","6.974761000000",0,,0,""
000000665690,"","Köln Airport-Businesspark",,"50.910282000000","7.044451000000",0,,0,""
000000440490,"","Köln-Müngersdorf Technologiepark",,"50.948394000000","6.888201000000",0,,0,""
000000665490,"","Köln Steinstraße",,"50.895558000000","7.057173000000",0,,0,""
000000440690,"","Köln Hansaring",,"50.949131000000","6.952565000000",0,,0,""
000000375070,"","Kohlscheid",,"50.831728000000","6.074485000000",0,,0,""
000000664690,"","Korschenbroich",,"51.195650000000","6.511886000000",0,,0,""
000000662290,"","Krefeld-Linn",,"51.337305000000","6.629668000000",0,,0,""
000000662490,"","Krefeld-Uerdingen",,"51.357278000000","6.645778000000",0,,0,""
000000456670,"","Langerwehe",,"50.817878000000","6.353611000000",0,,0,""
000000327270,"","Lindern",,"50.996842000000","6.207467000000",0,,0,""
000000440790,"","Lövenich",,"50.942932000000","6.834440000000",0,,0,""
000000668690,"","Merten(Sieg)",,"50.770480000000","7.385657000000",0,,0,""
000000473898,"","Merzenich",,"50.840032000000","6.518051000000",0,,0,""
000000476590,"","Mönchengladbach-Genhausen",,"51.148081000000","6.329040000000",0,,0,""
000000477190,"","Mönchengladbach, Rheindahlen Bf",,"51.150712000000","6.357894000000",0,,0,""
000000681290,"","Niederhövels",,"50.786291000000","7.788525000000",0,,0,""
000000672090,"","Niederschelden",,"50.839248000000","7.965509000000",0,,0,""
000000673090,"","Bönen-Nordbögge",,"51.615709000000","7.742200000000",0,,0,""
000000665890,"","Porz(Rhein)",,"50.882907000000","7.064724000000",0,,0,""
000000666290,"","Porz-Wahn",,"50.858133000000","7.079266000000",0,,0,""
000000661690,"","Rheinhausen Ost",,"51.401873000000","6.724108000000",0,,0,""
000000669690,"","Rosbach(Sieg)",,"50.796768000000","7.608767000000",0,,0,""
000000680490,"","Scheuerfeld(Sieg)",,"50.791863000000","7.836636000000",0,,0,""
000000669090,"","Schladern(Sieg)",,"50.807006000000","7.592264000000",0,,0,""
000000667690,"","Siegburg/Bonn",,"50.793915000000","7.203026000000",0,,0,""
000000439590,"","Sindorf",,"50.903707000000","6.681106000000",0,,0,""
000000667490,"","Spich",,"50.826727000000","7.114916000000",0,,0,""
000000578890,"","Stolberg-Altstadt",,"50.764279000000","6.230586000000",0,,0,""
000000579290,"","Stolberg-Rathaus",,"50.768670000000","6.229756000000",0,,0,""
000000575870,"","Stolberg-Schneidmühle",,"50.785050000000","6.218873000000",0,,0,""
000000578670,"","Stolberg-Mühlener Bahnhof",,"50.773597000000","6.223847000000",0,,0,""
000000595270,"","Übach-Palenberg",,"50.924336000000","6.097265000000",0,,0,""
000000670090,"","Wattenscheid",,"51.473214000000","7.139521000000",0,,0,""
000000634070,"","Wegberg",,"51.145162000000","6.281660000000",0,,0,""
000000671390,"","Wetter(Ruhr)",,"51.386413000000","7.385915000000",0,,0,""
000000478590,"","Mönchengladbach, Wickrath Bf",,"51.132770000000","6.411505000000",0,,0,""
000000681490,"","Wissen(Sieg)",,"50.782871000000","7.739814000000",0,,0,""
000000663490,"","Wuppertal-Barmen",,"51.266972000000","7.195159000000",0,,0,""
000000667090,"","Leverkusen Mitte",,"51.031514000000","6.991661000000",0,,0,""
000000663690,"","Wuppertal-Vohwinkel",,"51.234259000000","7.071597000000",0,,0,""
000000664290,"","Wuppertal-Oberbarmen",,"51.273839000000","7.221483000000",0,,0,""
000000413870,"","Jülich-Broich",,"50.947089000000","6.342153000000",0,,0,""
000000413670,"","Jülich-Nord",,"50.929416000000","6.366070000000",0,,0,""
000000459270,"","Linnich Bhf",,"50.982395000000","6.276153000000",0,,0,""
000000465470,"","Linnich-Tetz",,"50.964215000000","6.322882000000",0,,0,""
000000425370,"","Jülich-Selgersdorf",,"50.890229000000","6.408290000000",0,,0,""
000000421770,"","Jülich Forschungszentrum",,"50.898636000000","6.392203000000",0,,0,""
000000500370,"","Krauthausen",,"50.878662000000","6.423270000000",0,,0,""
000000499570,"","Huchem-Stammeln",,"50.852697000000","6.453200000000",0,,0,""
000000225170,"","Düren Annakirmesplatz",,"50.796272000000","6.474344000000",0,,0,""
000000249370,"","Düren-Lendersdorf",,"50.774830000000","6.490530000000",0,,0,""
000000444570,"","Kreuzau Bahnhof",,"50.750750000000","6.488409000000",0,,0,""
000000448770,"","Üdingen",,"50.728109000000","6.481437000000",0,,0,""
000000449370,"","Untermaubach-Schlagstein",,"50.726523000000","6.459848000000",0,,0,""
000000446370,"","Obermaubach",,"50.714198000000","6.447386000000",0,,0,""
000000491970,"","Zerkall",,"50.692439000000","6.453932000000",0,,0,""
000000491170,"","Nideggen-Brück",,"50.689754000000","6.465780000000",0,,0,""
000000489770,"","Abenden",,"50.671231000000","6.476561000000",0,,0,""
000000338570,"","Blens",,"50.660352000000","6.485712000000",0,,0,""
000000339970,"","Hausen (b Düren)",,"50.652793000000","6.492152000000",0,,0,""
000000340970,"","Heimbach (Eifel)",,"50.636438000000","6.473489000000",0,,0,""
000000444170,"","Kreuzau-Eifelstraße",,"50.742798000000","6.491940000000",0,,0,""
000000250970,"","Düren Renkerstraße",,"50.770266000000","6.489427000000",0,,0,""
000000234170,"","Düren-Kuhbrücke",,"50.783312000000","6.486752000000",0,,0,""
000000254170,"","Niederau-Tuchmühle",,"50.764215000000","6.488226000000",0,,0,""
000000503170,"","Selhausen",,"50.865695000000","6.439356000000",0,,0,""
000000242770,"","Düren Im großen Tal",,"50.833020000000","6.474310000000",0,,0,""
000000101690,"","Aachen Schanz",,"50.769862000000","6.073840000000",0,,0,""
000000198670,"","Alsdorf-Annapark",,"50.870517000000","6.156661000000",0,,0,""
000000192470,"","Alsdorf-Busch",,"50.876588000000","6.140586000000",0,,0,""
000000665290,"","Köln-Weiden West",,"50.940900000000","6.815137000000",0,,0,""
000000100101,"","Aachen, Bushof",,"50.777592000000","6.090817000000",0,,0,"H.1"
000000100102,"","Aachen, Bushof",,"50.777311000000","6.090380000000",0,,0,"H.2"
000000100103,"","Aachen, Bushof",,"50.777096000000","6.090053000000",0,,0,"H.3"
000000100104,"","Aachen, Bushof",,"50.777653000000","6.090742000000",0,,0,"H.4"
000000100105,"","Aachen, Bushof",,"50.777363000000","6.090292000000",0,,0,"H.5"
000000100106,"","Aachen, Bushof",,"50.777165000000","6.089935000000",0,,0,"H.6"
000000100107,"","Aachen, Bushof",,"50.777696000000","6.090668000000",0,,0,"H.7"
000000100110,"","Aachen, Bushof",,"50.776837000000","6.090112000000",0,,0,"H.10"
000000100111,"","Aachen, Bushof",,"50.777174000000","6.090658000000",0,,0,"H.11"
000000100112,"","Aachen, Bushof",,"50.776922000000","6.090660000000",0,,0,"H.12"
000000100113,"","Aachen, Bushof",,"50.777269000000","6.091220000000",0,,0,"H.13"
000000100114,"","Aachen, Bushof",,"50.777158000000","6.089283000000",0,,0,"H.14"
000000100115,"","Aachen, Bushof",,"50.777388000000","6.088758000000",0,,0,"H.15"
000000100201,"","Aachen, Kaiser-Friedrich-Park",,"50.759542000000","6.075146000000",0,,0,"H.1"
000000100202,"","Aachen, Kaiser-Friedrich-Park",,"50.758949000000","6.075169000000",0,,0,"H.2"
000000100301,"","Aachen, Ehrenmal / Lousberg",,"50.782026000000","6.083589000000",0,,0,"H.1"
000000100401,"","Aachen, STAWAG",,"50.783190000000","6.099962000000",0,,0,"H.1"
000000100402,"","Aachen, STAWAG",,"50.783048000000","6.100055000000",0,,0,"H.2"
000000100501,"","Aachen, Misereor",,"50.769134000000","6.084604000000",0,,0,"H.1"
000000100502,"","Aachen, Misereor",,"50.769052000000","6.084198000000",0,,0,"H.2"
000000100503,"","Aachen, Misereor",,"50.768553000000","6.083293000000",0,,0,"H.3"
000000100504,"","Aachen, Misereor",,"50.768741000000","6.082926000000",0,,0,"H.4"
000000100601,"","Aachen, Ritterstraße",,"50.788300000000","6.065134000000",0,,0,"H.1"
000000100701,"","Aachen, Hauptbahnhof (Bus)",,"50.768700000000","6.090617000000",0,,0,"H.1"
000000100702,"","Aachen, Hauptbahnhof (Bus)",,"50.768822000000","6.090453000000",0,,0,"H.2"
000000100901,"","Aachen, Alter Posthof",,"50.772443000000","6.085987000000",0,,0,"H.1"
000000100902,"","Aachen, Alter Posthof",,"50.772198000000","6.083733000000",0,,0,"H.2"
000000101102,"","Aachen, Kaiserplatz",,"50.774533000000","6.095107000000",0,,0,"H.2"
000000101103,"","Aachen, Kaiserplatz",,"50.774643000000","6.095199000000",0,,0,"H.3"
000000101104,"","Aachen, Kaiserplatz",,"50.775508000000","6.095259000000",0,,0,"H.4"
000000101105,"","Aachen, Kaiserplatz",,"50.775566000000","6.095411000000",0,,0,"H.5"
000000101501,"","Aachen, Schanz (Jakobstraße)",,"50.768831000000","6.073942000000",0,,0,"H.1"
000000101502,"","Aachen, Schanz (Jakobstraße)",,"50.768931000000","6.074453000000",0,,0,"H.2"
000000101503,"","Aachen, Schanz (Jakobstraße)",,"50.769123000000","6.074402000000",0,,0,"H.3"
000000101504,"","Aachen, Schanz (Jakobstraße)",,"50.769399000000","6.074249000000",0,,0,"H.4"
000000101701,"","Aachen, Theater",,"50.772239000000","6.088269000000",0,,0,"H.1"
000000101702,"","Aachen, Theater",,"50.771890000000","6.088688000000",0,,0,"H.2"
000000101901,"","Aachen, Annastraße (Hans-Stercken-Platz)",,"50.772439000000","6.080072000000",0,,0,"H.1"
000000101902,"","Aachen, Annastraße (Hans-Stercken-Platz)",,"50.772581000000","6.080006000000",0,,0,"H.2"
000000102101,"","Aachen, Audimax",,"50.780176000000","6.075475000000",0,,0,"H.1"
000000102102,"","Aachen, Audimax",,"50.780260000000","6.075200000000",0,,0,"H.2"
000000102301,"","Aachen, Augustastraße (Suermondt-Ludwig-Museum)",,"50.773131000000","6.095903000000",0,,0,"H.1"
000000102302,"","Aachen, Augustastraße (Suermondt-Ludwig-Museum)",,"50.772397000000","6.095665000000",0,,0,"H.2"
000000102702,"","Aachen, Driescher Gässchen (RWTH Aachen)",,"50.779723000000","6.081434000000",0,,0,"H.2"
000000102901,"","Aachen, Elisenbrunnen",,"50.774733000000","6.087987000000",0,,0,"H.1"
000000102902,"","Aachen, Elisenbrunnen",,"50.774010000000","6.087493000000",0,,0,"H.2"
000000102903,"","Aachen, Elisenbrunnen",,"50.773717000000","6.086943000000",0,,0,"H.3"
000000102904,"","Aachen, Elisenbrunnen",,"50.774368000000","6.087428000000",0,,0,"H.4"
000000103101,"","Aachen, Eurogress",,"50.780785000000","6.090065000000",0,,0,"H.1"
000000103102,"","Aachen, Eurogress",,"50.780734000000","6.091303000000",0,,0,"H.2"
000000103301,"","Aachen, Hansemannplatz",,"50.778184000000","6.093549000000",0,,0,"H.1"
000000103302,"","Aachen, Hansemannplatz",,"50.777848000000","6.094201000000",0,,0,"H.2"
000000103303,"","Aachen, Hansemannplatz",,"50.778048000000","6.094418000000",0,,0,"H.3"
000000103304,"","Aachen, Hansemannplatz",,"50.778479000000","6.095928000000",0,,0,"H.4"
000000103305,"","Aachen, Hansemannplatz",,"50.778601000000","6.094161000000",0,,0,"H.5"
000000103501,"","Aachen, Jakobsplatz",,"50.770738000000","6.075369000000",0,,0,"H.1"
000000103502,"","Aachen, Jakobsplatz",,"50.770725000000","6.075214000000",0,,0,"H.2"
000000103701,"","Aachen, Markt (Judengasse)",,"50.775180000000","6.081050000000",0,,0,"H.1"
000000103702,"","Aachen, Markt (Judengasse)",,"50.775538000000","6.081326000000",0,,0,"H.2"
000000103901,"","Aachen, Karlsgraben",,"50.772939000000","6.076693000000",0,,0,"H.1"
000000103902,"","Aachen, Karlsgraben",,"50.772857000000","6.076641000000",0,,0,"H.2"
000000103903,"","Aachen, Karlsgraben",,"50.772575000000","6.077241000000",0,,0,"H.3"
000000103904,"","Aachen, Karlsgraben",,"50.772470000000","6.077020000000",0,,0,"H.4"
000000104101,"","Aachen, Königstraße",,"50.775233000000","6.075642000000",0,,0,"H.1"
000000104102,"","Aachen, Königstraße",,"50.775005000000","6.075855000000",0,,0,"H.2"
000000104103,"","Aachen, Königstraße",,"50.775441000000","6.075303000000",0,,0,"H.3"
000000104104,"","Aachen, Königstraße",,"50.775499000000","6.075483000000",0,,0,"H.4"
000000104501,"","Aachen, Luisenhospital",,"50.768385000000","6.077672000000",0,,0,"H.1"
000000104502,"","Aachen, Luisenhospital",,"50.768457000000","6.077313000000",0,,0,"H.2"
000000104701,"","Aachen, Minoritenstraße",,"50.778461000000","6.085272000000",0,,0,"H.1"
000000104702,"","Aachen, Minoritenstraße",,"50.778494000000","6.085880000000",0,,0,"H.2"
000000104901,"","Aachen, Normaluhr",,"50.768059000000","6.094870000000",0,,0,"H.1"
000000104902,"","Aachen, Normaluhr",,"50.768501000000","6.094544000000",0,,0,"H.2"
000000104903,"","Aachen, Normaluhr",,"50.768732000000","6.094090000000",0,,0,"H.3"
000000104904,"","Aachen, Normaluhr",,"50.769997000000","6.093955000000",0,,0,"H.4"
000000104905,"","Aachen, Normaluhr",,"50.769844000000","6.095397000000",0,,0,"H.5"
000000104906,"","Aachen, Normaluhr",,"50.768953000000","6.096077000000",0,,0,"H.6"
000000105101,"","Aachen, Paulusstraße",,"50.774058000000","6.078992000000",0,,0,"H.1"
000000105102,"","Aachen, Paulusstraße",,"50.774098000000","6.078791000000",0,,0,"H.2"
000000105501,"","Aachen, Ponttor",,"50.780860000000","6.077972000000",0,,0,"H.1"
000000105502,"","Aachen, Ponttor",,"50.781221000000","6.078744000000",0,,0,"H.2"
000000105503,"","Aachen, Ponttor",,"50.781139000000","6.077969000000",0,,0,"H.3"
000000105701,"","Aachen, Technische Hochschule",,"50.777466000000","6.078212000000",0,,0,"H.1"
000000105702,"","Aachen, Technische Hochschule",,"50.777302000000","6.077783000000",0,,0,"H.2"
000000105901,"","Aachen, Turmstraße",,"50.775136000000","6.071761000000",0,,0,"H.1"
000000105902,"","Aachen, Turmstraße",,"50.775208000000","6.071785000000",0,,0,"H.2"
000000105903,"","Aachen, Turmstraße",,"50.774729000000","6.072411000000",0,,0,"H.3"
000000105904,"","Aachen, Turmstraße",,"50.774776000000","6.072124000000",0,,0,"H.4"
000000106101,"","Aachen, Wallstraße",,"50.771165000000","6.090989000000",0,,0,"H.1"
000000106102,"","Aachen, Wallstraße",,"50.770893000000","6.091289000000",0,,0,"H.2"
000000106501,"","Aachen, Rolandstraße",,"50.786590000000","6.096331000000",0,,0,"H.1"
000000106502,"","Aachen, Rolandstraße",,"50.787022000000","6.095992000000",0,,0,"H.2"
000000106701,"","Aachen, Blücherplatz",,"50.779862000000","6.099983000000",0,,0,"H.1"
000000106702,"","Aachen, Blücherplatz",,"50.780354000000","6.101286000000",0,,0,"H.2"
000000106901,"","Aachen, Elsa-Brändström-Straße",,"50.785326000000","6.090024000000",0,,0,"H.1"
000000106902,"","Aachen, Elsa-Brändström-Straße",,"50.785177000000","6.090175000000",0,,0,"H.2"
000000107101,"","Aachen, Europaplatz",,"50.778998000000","6.109712000000",0,,0,"H.1"
000000107102,"","Aachen, Europaplatz",,"50.778335000000","6.110193000000",0,,0,"H.2"
000000107301,"","Aachen, Carolus Thermen",,"50.784176000000","6.097673000000",0,,0,"H.1"
000000107302,"","Aachen, Carolus Thermen",,"50.784250000000","6.097739000000",0,,0,"H.2"
000000107501,"","Aachen, Ludwig Forum",,"50.781451000000","6.103091000000",0,,0,"H.1"
000000107502,"","Aachen, Ludwig Forum",,"50.781372000000","6.103195000000",0,,0,"H.2"
000000107701,"","Aachen, Alter Tivoli",,"50.789808000000","6.095905000000",0,,0,"H.1"
000000107702,"","Aachen, Alter Tivoli",,"50.790667000000","6.097143000000",0,,0,"H.2"
000000107901,"","Aachen, Ungarnplatz (Carolus Thermen)",,"50.781783000000","6.097991000000",0,,0,"H.1"
000000107902,"","Aachen, Ungarnplatz (Carolus Thermen)",,"50.781930000000","6.098124000000",0,,0,"H.2"
000000108101,"","Aachen, Wiesental",,"50.782174000000","6.105771000000",0,,0,"H.1"
000000108102,"","Aachen, Wiesental",,"50.781802000000","6.106021000000",0,,0,"H.2"
000000108301,"","Aachen, Bendplatz",,"50.784365000000","6.073908000000",0,,0,"H.1"
000000108302,"","Aachen, Bendplatz",,"50.784529000000","6.073997000000",0,,0,"H.2"
000000108501,"","Aachen, Westbahnhof (Bus)",,"50.780931000000","6.072576000000",0,,0,"H.1"
000000108502,"","Aachen, Westbahnhof (Bus)",,"50.780529000000","6.071963000000",0,,0,"H.2"
000000108503,"","Aachen, Westbahnhof (Bus)",,"50.781632000000","6.071809000000",0,,0,"H.3"
000000108504,"","Aachen, Westbahnhof (Bus)",,"50.781532000000","6.072127000000",0,,0,"H.4"
000000108701,"","Aachen, Europadorf",,"50.786844000000","6.063395000000",0,,0,"H.1"
000000108702,"","Aachen, Europadorf",,"50.787108000000","6.063165000000",0,,0,"H.2"
000000108901,"","Aachen, Jupp-Müller-Straße",,"50.786375000000","6.070845000000",0,,0,"H.1"
000000108902,"","Aachen, Jupp-Müller-Straße",,"50.787206000000","6.069900000000",0,,0,"H.2"
000000109101,"","Aachen, Laurensberg Kackertstraße",,"50.790911000000","6.061664000000",0,,0,"H.1"
000000109102,"","Aachen, Laurensberg Kackertstraße",,"50.790911000000","6.062019000000",0,,0,"H.2"
000000109301,"","Aachen, Süsterau",,"50.788600000000","6.061341000000",0,,0,"H.1"
000000109302,"","Aachen, Süsterau",,"50.789308000000","6.060856000000",0,,0,"H.2"
000000109501,"","Aachen, Süsterfeld",,"50.784064000000","6.068024000000",0,,0,"H.1"
000000109502,"","Aachen, Süsterfeld",,"50.784574000000","6.067212000000",0,,0,"H.2"
000000109901,"","Aachen, Josefskirche (Justizzentrum)",,"50.774410000000","6.107513000000",0,,0,"H.1"
000000109902,"","Aachen, Josefskirche (Justizzentrum)",,"50.774301000000","6.107137000000",0,,0,"H.2"
000000109903,"","Aachen, Josefskirche (Justizzentrum)",,"50.774622000000","6.106634000000",0,,0,"H.3"
000000109904,"","Aachen, Josefskirche (Justizzentrum)",,"50.774659000000","6.107427000000",0,,0,"H.4"
000000110101,"","Aachen, Frankenberg",,"50.766936000000","6.109364000000",0,,0,"H.1"
000000110102,"","Aachen, Frankenberg",,"50.766693000000","6.109025000000",0,,0,"H.2"
000000110301,"","Aachen, Goerdelerstraße",,"50.770987000000","6.112419000000",0,,0,"H.1"
000000110302,"","Aachen, Goerdelerstraße",,"50.770942000000","6.112791000000",0,,0,"H.2"
000000110501,"","Aachen, Scheibenstraße",,"50.774493000000","6.101450000000",0,,0,"H.1"
000000110502,"","Aachen, Scheibenstraße",,"50.774413000000","6.101512000000",0,,0,"H.2"
000000110701,"","Aachen, Schlossstraße",,"50.769590000000","6.101058000000",0,,0,"H.1"
000000110702,"","Aachen, Schlossstraße",,"50.769379000000","6.101284000000",0,,0,"H.2"
000000110901,"","Aachen, Viktoriaallee",,"50.770394000000","6.107364000000",0,,0,"H.1"
000000110902,"","Aachen, Viktoriaallee",,"50.770079000000","6.107738000000",0,,0,"H.2"
000000111101,"","Aachen, Vogelsang",,"50.757521000000","6.108044000000",0,,0,"H.1"
000000111102,"","Aachen, Vogelsang",,"50.757115000000","6.106566000000",0,,0,"H.2"
000000111301,"","Aachen, Beverau",,"50.759413000000","6.112523000000",0,,0,"H.1"
000000111302,"","Aachen, Beverau",,"50.759374000000","6.112411000000",0,,0,"H.2"
000000111303,"","Aachen, Beverau",,"50.758573000000","6.111312000000",0,,0,"H.3"
000000111304,"","Aachen, Beverau",,"50.758684000000","6.111405000000",0,,0,"H.4"
000000111501,"","Aachen, Juttastraße",,"50.759518000000","6.105510000000",0,,0,"H.1"
000000111502,"","Aachen, Juttastraße",,"50.759718000000","6.105611000000",0,,0,"H.2"
000000111701,"","Aachen, Wilhelm-Pitz-Weg",,"50.761645000000","6.100628000000",0,,0,"H.1"
000000111702,"","Aachen, Wilhelm-Pitz-Weg",,"50.761599000000","6.100957000000",0,,0,"H.2"
000000111901,"","Aachen, Zwanzigmorgen",,"50.763026000000","6.110938000000",0,,0,"H.1"
000000111902,"","Aachen, Zwanzigmorgen",,"50.763076000000","6.110794000000",0,,0,"H.2"
000000112101,"","Aachen, Brand Hermann-Löns-Straße",,"50.761784000000","6.169559000000",0,,0,"H.1"
000000112102,"","Aachen, Brand Hermann-Löns-Straße",,"50.761737000000","6.169477000000",0,,0,"H.2"
000000112301,"","Aachen, Brand Kolpingstraße",,"50.750791000000","6.171768000000",0,,0,"H.1"
000000112302,"","Aachen, Brand Kolpingstraße",,"50.750669000000","6.171535000000",0,,0,"H.2"
000000112501,"","Aachen, Brand Am Tiergarten",,"50.755941000000","6.169713000000",0,,0,"H.1"
000000112502,"","Aachen, Brand Am Tiergarten",,"50.755832000000","6.168954000000",0,,0,"H.2"
000000112701,"","Aachen, Brand",,"50.749645000000","6.164209000000",0,,0,"H.1"
000000112702,"","Aachen, Brand",,"50.749421000000","6.165712000000",0,,0,"H.2"
000000112704,"","Aachen, Brand",,"50.749368000000","6.164297000000",0,,0,"H.4"
000000112901,"","Aachen, Richard-Wagner-Straße (Columbarium)",,"50.754195000000","6.163013000000",0,,0,"H.1"
000000112902,"","Aachen, Richard-Wagner-Straße (Columbarium)",,"50.754057000000","6.164028000000",0,,0,"H.2"
000000113101,"","Aachen, Brand Hochstraße",,"50.746385000000","6.162577000000",0,,0,"H.1"
000000113301,"","Aachen, Brand Ringstraße",,"50.751964000000","6.158950000000",0,,0,"H.1"
000000113302,"","Aachen, Brand Ringstraße",,"50.751401000000","6.159864000000",0,,0,"H.2"
000000113501,"","Aachen, Brand Schulzentrum",,"50.749451000000","6.154027000000",0,,0,"H.1"
000000113502,"","Aachen, Brand Schulzentrum",,"50.749217000000","6.153672000000",0,,0,"H.2"
000000113503,"","Aachen, Brand Schulzentrum",,"50.749893000000","6.154439000000",0,,0,"H.3"
000000113701,"","Aachen, Brand Schwimmhalle",,"50.747253000000","6.158711000000",0,,0,"H.1"
000000113702,"","Aachen, Brand Schwimmhalle",,"50.746557000000","6.157832000000",0,,0,"H.2"
000000113703,"","Aachen, Brand Schwimmhalle",,"50.747395000000","6.157526000000",0,,0,"H.3"
000000113901,"","Aachen, Brander Feld",,"50.746521000000","6.147881000000",0,,0,"H.1"
000000113902,"","Aachen, Brander Feld",,"50.746745000000","6.148194000000",0,,0,"H.2"
000000114101,"","Aachen, Brand Eckenerstraße",,"50.754186000000","6.153824000000",0,,0,"H.1"
000000114102,"","Aachen, Brand Eckenerstraße",,"50.753959000000","6.154108000000",0,,0,"H.2"
000000114301,"","Aachen, Brand Eilendorfer Straße",,"50.751915000000","6.176933000000",0,,0,"H.1"
000000114302,"","Aachen, Brand Eilendorfer Straße",,"50.751871000000","6.176992000000",0,,0,"H.2"
000000114501,"","Aachen, Brand Erberichshofstraße",,"50.757702000000","6.172613000000",0,,0,"H.1"
000000114502,"","Aachen, Brand Erberichshofstraße",,"50.757869000000","6.172433000000",0,,0,"H.2"
000000114601,"","Aachen, Brander Heide (Nordstraße)",,"50.760031000000","6.166276000000",0,,0,"H.1"
000000114602,"","Aachen, Brander Heide (Nordstraße)",,"50.759953000000","6.166053000000",0,,0,"H.2"
000000114701,"","Aachen, Brand Freund",,"50.753522000000","6.184620000000",0,,0,"H.1"
000000114702,"","Aachen, Brand Freund",,"50.753098000000","6.182689000000",0,,0,"H.2"
000000114901,"","Aachen, Brand Goertzbrunnstraße",,"50.752490000000","6.179507000000",0,,0,"H.1"
000000114902,"","Aachen, Brand Goertzbrunnstraße",,"50.752620000000","6.180421000000",0,,0,"H.2"
000000115301,"","Aachen, Brand Kollenbruch",,"50.742568000000","6.162426000000",0,,0,"H.1"
000000115302,"","Aachen, Brand Kollenbruch",,"50.742694000000","6.162432000000",0,,0,"H.2"
000000115501,"","Aachen, Brand Niederforstbach",,"50.741342000000","6.157907000000",0,,0,"H.1"
000000115502,"","Aachen, Brand Niederforstbach",,"50.741511000000","6.157811000000",0,,0,"H.2"
000000115701,"","Aachen, Brand Rollefer Berg",,"50.745271000000","6.165594000000",0,,0,"H.1"
000000115702,"","Aachen, Brand Rollefer Berg",,"50.745275000000","6.165395000000",0,,0,"H.2"
000000115901,"","Aachen, Brand Schagenstraße",,"50.748169000000","6.150163000000",0,,0,"H.1"
000000115902,"","Aachen, Brand Schagenstraße",,"50.748310000000","6.150792000000",0,,0,"H.2"
000000116101,"","Aachen, Brand Steinebrück",,"50.742435000000","6.174002000000",0,,0,"H.1"
000000116102,"","Aachen, Brand Steinebrück",,"50.743467000000","6.173542000000",0,,0,"H.2"
000000116301,"","Aachen, Brand Vennblick",,"50.742004000000","6.166599000000",0,,0,"H.2"
000000116302,"","Aachen, Brand Vennblick",,"50.742063000000","6.166468000000",0,,0,"H.2"
000000116501,"","Aachen, Brand Wolferskaul",,"50.743790000000","6.159445000000",0,,0,"H.1"
000000116502,"","Aachen, Brand Wolferskaul",,"50.743906000000","6.159410000000",0,,0,"H.2"
000000116503,"","Aachen, Brand Wolferskaul",,"50.744361000000","6.159595000000",0,,0,"H.3"
000000116701,"","Aachen, Schillerstraße",,"50.762809000000","6.078076000000",0,,0,"H.1"
000000116702,"","Aachen, Schillerstraße",,"50.762929000000","6.078197000000",0,,0,"H.2"
000000116901,"","Aachen, Burtscheid",,"50.761126000000","6.093867000000",0,,0,"H.1"
000000116902,"","Aachen, Burtscheid",,"50.760549000000","6.093463000000",0,,0,"H.2"
000000117101,"","Aachen, Burtscheid Hauptstraße",,"50.765497000000","6.089511000000",0,,0,"H.1"
000000117102,"","Aachen, Burtscheid Hauptstraße",,"50.765821000000","6.089902000000",0,,0,"H.2"
000000117301,"","Aachen, Gillesbachtal",,"50.764531000000","6.099116000000",0,,0,"H.1"
000000117302,"","Aachen, Gillesbachtal",,"50.764323000000","6.098718000000",0,,0,"H.2"
000000117501,"","Aachen, Habsburgerallee",,"50.763538000000","6.082031000000",0,,0,"H.1"
000000117502,"","Aachen, Habsburgerallee",,"50.763263000000","6.082190000000",0,,0,"H.2"
000000117701,"","Aachen, Heißberg",,"50.759245000000","6.094565000000",0,,0,"H.1"
000000117702,"","Aachen, Heißberg",,"50.759064000000","6.094505000000",0,,0,"H.2"
000000117901,"","Aachen, Kapitelstraße",,"50.767391000000","6.093663000000",0,,0,"H.1"
000000117902,"","Aachen, Kapitelstraße",,"50.767515000000","6.093598000000",0,,0,"H.2"
000000118101,"","Aachen, Marienhospital",,"50.762580000000","6.096968000000",0,,0,"H.1"
000000118102,"","Aachen, Marienhospital",,"50.762574000000","6.096755000000",0,,0,"H.2"
000000118103,"","Aachen, Marienhospital",,"50.762580000000","6.097719000000",0,,0,"H.3"
000000118301,"","Aachen, Reumontstraße",,"50.766047000000","6.082030000000",0,,0,"H.1"
000000118302,"","Aachen, Reumontstraße",,"50.765788000000","6.081380000000",0,,0,"H.2"
000000118501,"","Aachen, Rosenquelle",,"50.766283000000","6.097207000000",0,,0,"H.1"
000000118502,"","Aachen, Rosenquelle",,"50.766545000000","6.095843000000",0,,0,"H.2"
000000118701,"","Aachen, Burtscheid Sebastianstraße",,"50.762167000000","6.087264000000",0,,0,"H.1"
000000118702,"","Aachen, Burtscheid Sebastianstraße",,"50.761597000000","6.086803000000",0,,0,"H.2"
000000118901,"","Aachen, Krauthausen",,"50.740234000000","6.186368000000",0,,0,"H.1"
000000118902,"","Aachen, Krauthausen",,"50.740793000000","6.186816000000",0,,0,"H.2"
000000119101,"","Aachen, Waldschenke",,"50.745486000000","6.061703000000",0,,0,"H.1"
000000119102,"","Aachen, Waldschenke",,"50.745079000000","6.061601000000",0,,0,"H.2"
000000119301,"","Aachen, Westfriedhof",,"50.769185000000","6.049097000000",0,,0,"H.1"
000000119302,"","Aachen, Westfriedhof",,"50.769255000000","6.049745000000",0,,0,"H.2"
000000119501,"","Aachen, Augustinerweg",,"50.724971000000","6.089785000000",0,,0,"H.1"
000000119502,"","Aachen, Augustinerweg",,"50.724914000000","6.089661000000",0,,0,"H.2"
000000119701,"","Aachen, Sief Baumgartsweg",,"50.696523000000","6.142972000000",0,,0,"H.1"
000000119702,"","Aachen, Sief Baumgartsweg",,"50.696245000000","6.143371000000",0,,0,"H.2"
000000119901,"","Aachen, Eilendorf Bayerhaus",,"50.777959000000","6.179279000000",0,,0,"H.1"
000000119902,"","Aachen, Eilendorf Bayerhaus",,"50.778002000000","6.180312000000",0,,0,"H.2"
000000120101,"","Aachen, Berensberg",,"50.810465000000","6.090989000000",0,,0,"H.1"
000000120102,"","Aachen, Berensberg",,"50.810373000000","6.091278000000",0,,0,"H.2"
000000120103,"","Aachen, Berensberg",,"50.810927000000","6.091499000000",0,,0,"H.3"
000000120104,"","Aachen, Berensberg",,"50.810789000000","6.091749000000",0,,0,"H.4"
000000120301,"","Aachen, Bildchen Grenze (Wasserwerk)",,"50.726562000000","6.034091000000",0,,0,"H.1"
000000120302,"","Aachen, Bildchen Grenze (Wasserwerk)",,"50.726502000000","6.033840000000",0,,0,"H.2"
000000120501,"","Aachen, Bildchen Zollamt",,"50.730832000000","6.041049000000",0,,0,"H.1"
000000120502,"","Aachen, Bildchen Zollamt",,"50.730614000000","6.040595000000",0,,0,"H.2"
000000120701,"","Aachen, Lichtenbusch Broichhausen",,"50.700603000000","6.131110000000",0,,0,"H.1"
000000120702,"","Aachen, Lichtenbusch Broichhausen",,"50.700792000000","6.130758000000",0,,0,"H.2"
000000120901,"","Aachen, Eich",,"50.730441000000","6.140667000000",0,,0,"H.1"
000000120902,"","Aachen, Eich",,"50.730474000000","6.140566000000",0,,0,"H.2"
000000121101,"","Aachen, Richterich Ferberberg",,"50.809114000000","6.083037000000",0,,0,"H.1"
000000121102,"","Aachen, Richterich Ferberberg",,"50.809190000000","6.083884000000",0,,0,"H.2"
000000121301,"","Aachen, Verlautenheide Forsthaus",,"50.791071000000","6.175084000000",0,,0,"H.1"
000000121302,"","Aachen, Verlautenheide Forsthaus",,"50.790997000000","6.175003000000",0,,0,"H.2"
000000121501,"","Aachen, Grundhaus",,"50.754230000000","6.059936000000",0,,0,"H.1"
000000121502,"","Aachen, Grundhaus",,"50.754460000000","6.059794000000",0,,0,"H.2"
000000121701,"","Aachen, Grüne Eiche",,"50.731248000000","6.115758000000",0,,0,"H.1"
000000121702,"","Aachen, Grüne Eiche",,"50.731192000000","6.115648000000",0,,0,"H.2"
000000121901,"","Aachen, Heidbenden",,"50.753299000000","6.130496000000",0,,0,"H.1"
000000121902,"","Aachen, Heidbenden",,"50.753936000000","6.130783000000",0,,0,"H.2"
000000122101,"","Aachen, Hitfeld",,"50.736065000000","6.132316000000",0,,0,"H.1"
000000122102,"","Aachen, Hitfeld",,"50.735864000000","6.132555000000",0,,0,"H.2"
000000122301,"","Aachen, Hochgrundhaus",,"50.750239000000","6.060385000000",0,,0,"H.1"
000000122302,"","Aachen, Hochgrundhaus",,"50.750190000000","6.060260000000",0,,0,"H.2"
000000122501,"","Aachen, Kornelimünster Iternberg",,"50.721135000000","6.186662000000",0,,0,"H.1"
000000122502,"","Aachen, Kornelimünster Iternberg",,"50.720763000000","6.186529000000",0,,0,"H.2"
000000122701,"","Aachen, Laurensberg Kirschbäumchen",,"50.800511000000","6.028046000000",0,,0,"H.1"
000000122702,"","Aachen, Laurensberg Kirschbäumchen",,"50.800551000000","6.027844000000",0,,0,"H.2"
000000122901,"","Aachen, Köpfchen Altes Zollamt",,"50.723511000000","6.090018000000",0,,0,"H.1"
000000122902,"","Aachen, Köpfchen Altes Zollamt",,"50.723005000000","6.089922000000",0,,0,"H.2"
000000123101,"","Aachen, Kornelimünster Klause",,"50.734563000000","6.173937000000",0,,0,"H.1"
000000123102,"","Aachen, Kornelimünster Klause",,"50.733911000000","6.173750000000",0,,0,"H.2"
000000123301,"","Aachen, Krauthausen Siedlung",,"50.743934000000","6.190994000000",0,,0,"H.1"
000000123302,"","Aachen, Krauthausen Siedlung",,"50.743955000000","6.191106000000",0,,0,"H.2"
000000123501,"","Aachen, Rollefbachweg (Jugendbildungsstätte)",,"50.738892000000","6.175165000000",0,,0,"H.1"
000000123502,"","Aachen, Rollefbachweg (Jugendbildungsstätte)",,"50.739292000000","6.174942000000",0,,0,"H.2"
000000123503,"","Aachen, Rollefbachweg (Jugendbildungsstätte)",,"50.739128000000","6.175250000000",0,,0,"H.3"
000000123701,"","Aachen, Linzenshäuschen",,"50.736587000000","6.090979000000",0,,0,"H.1"
000000123702,"","Aachen, Linzenshäuschen",,"50.737115000000","6.090875000000",0,,0,"H.2"
000000123901,"","Aachen, Horbach Locht Zollmuseum",,"50.844823000000","6.021038000000",0,,0,"H.1"
000000123902,"","Aachen, Horbach Locht Zollmuseum",,"50.845389000000","6.019950000000",0,,0,"H.2"
000000124101,"","Aachen, Neu-Linzenshäuschen",,"50.739727000000","6.089551000000",0,,0,"H.1"
000000124102,"","Aachen, Neu-Linzenshäuschen",,"50.740163000000","6.088673000000",0,,0,"H.2"
000000124301,"","Aachen, Brand Niederforstbach Bau",,"50.734101000000","6.164185000000",0,,0,"H.1"
000000124302,"","Aachen, Brand Niederforstbach Bau",,"50.734070000000","6.164031000000",0,,0,"H.2"
000000124501,"","Aachen, Brand Niederforstbach Pützgasse",,"50.736477000000","6.161291000000",0,,0,"H.1"
000000124502,"","Aachen, Brand Niederforstbach Pützgasse",,"50.736268000000","6.161191000000",0,,0,"H.2"
000000124701,"","Aachen, Friesenrath Relais Königsberg",,"50.682100000000","6.180858000000",0,,0,""
000000124702,"","Aachen, Friesenrath Relais Königsberg",,"50.683041000000","6.180688000000",0,,0,""
000000124901,"","Aachen, Kornelimünster Schleckheimer Straße",,"50.723549000000","6.164907000000",0,,0,"H.1"
000000124902,"","Aachen, Kornelimünster Schleckheimer Straße",,"50.723617000000","6.165102000000",0,,0,"H.2"
000000125101,"","Aachen, Sief Abzweigung",,"50.695985000000","6.133884000000",0,,0,"H.1"
000000125102,"","Aachen, Sief Abzweigung",,"50.696104000000","6.133622000000",0,,0,"H.2"
000000125301,"","Aachen, Richterich Ürsfeld",,"50.820448000000","6.072603000000",0,,0,"H.1"
000000125302,"","Aachen, Richterich Ürsfeld",,"50.819921000000","6.072040000000",0,,0,"H.2"
000000125501,"","Aachen, Richterich Vetschauer Berg",,"50.807027000000","6.045860000000",0,,0,"H.1"
000000125502,"","Aachen, Richterich Vetschauer Berg",,"50.807153000000","6.045866000000",0,,0,"H.2"
000000125701,"","Aachen, Laurensberg Zollhaus",,"50.800629000000","6.042218000000",0,,0,"H.1"
000000125702,"","Aachen, Laurensberg Zollhaus",,"50.800687000000","6.041675000000",0,,0,"H.2"
000000125801,"","Aachen, Eilendorf Markusstraße",,"50.783206000000","6.154275000000",0,,0,"H.1"
000000125802,"","Aachen, Eilendorf Markusstraße",,"50.783466000000","6.154203000000",0,,0,"H.2"
000000126101,"","Aachen, Eilendorf Josefstraße",,"50.778683000000","6.144406000000",0,,0,"H.1"
000000126102,"","Aachen, Eilendorf Josefstraße",,"50.779064000000","6.144865000000",0,,0,"H.2"
000000126201,"","Aachen, Eilendorf Nirmer Platz",,"50.787653000000","6.154402000000",0,,0,"H.1"
000000126202,"","Aachen, Eilendorf Nirmer Platz",,"50.787613000000","6.154603000000",0,,0,"H.2"
000000126301,"","Aachen, Eilendorf Kaiserstraße",,"50.781480000000","6.147669000000",0,,0,"H.1"
000000126302,"","Aachen, Eilendorf Kaiserstraße",,"50.781427000000","6.147715000000",0,,0,"H.2"
000000126401,"","Aachen, Eilendorf Bahnhof (Wolfsbendenstraße)",,"50.785500000000","6.152050000000",0,,0,"H.1"
000000126402,"","Aachen, Eilendorf Bahnhof (Wolfsbendenstraße)",,"50.785539000000","6.152175000000",0,,0,"H.2"
000000126501,"","Aachen, Eilendorf Karlstraße",,"50.777320000000","6.146035000000",0,,0,"H.1"
000000126502,"","Aachen, Eilendorf Karlstraße",,"50.777039000000","6.146677000000",0,,0,"H.2"
000000126701,"","Aachen, Eilendorf Linde",,"50.777388000000","6.157296000000",0,,0,"H.1"
000000126702,"","Aachen, Eilendorf Linde",,"50.777328000000","6.157384000000",0,,0,"H.2"
000000126901,"","Aachen, Eilendorf Markt",,"50.779646000000","6.163202000000",0,,0,"H.1"
000000126902,"","Aachen, Eilendorf Markt",,"50.779462000000","6.163767000000",0,,0,"H.2"
000000127101,"","Aachen, Eilendorf Rathaus",,"50.780902000000","6.153847000000",0,,0,"H.1"
000000127102,"","Aachen, Eilendorf Rathaus",,"50.780683000000","6.153705000000",0,,0,"H.2"
000000127301,"","Aachen, Eilendorf Hahnweg",,"50.782875000000","6.159502000000",0,,0,"H.1"
000000127302,"","Aachen, Eilendorf Hahnweg",,"50.782989000000","6.158999000000",0,,0,"H.2"
000000127701,"","Aachen, Eilendorf Kirchfeld",,"50.776202000000","6.152189000000",0,,0,"H.1"
000000127702,"","Aachen, Eilendorf Kirchfeld",,"50.776100000000","6.152791000000",0,,0,"H.2"
000000127901,"","Aachen, Eilendorf Rheingold",,"50.777111000000","6.171045000000",0,,0,"H.1"
000000127902,"","Aachen, Eilendorf Rheingold",,"50.777080000000","6.171217000000",0,,0,"H.2"
000000128101,"","Aachen, Eilendorf Schubertstraße",,"50.781624000000","6.173511000000",0,,0,"H.1"
000000128102,"","Aachen, Eilendorf Schubertstraße",,"50.781735000000","6.174015000000",0,,0,"H.2"
000000128301,"","Aachen, Eilendorf Hansmannstraße",,"50.784556000000","6.154714000000",0,,0,"H.1"
000000128302,"","Aachen, Eilendorf Hansmannstraße",,"50.784544000000","6.155045000000",0,,0,"H.2"
000000128501,"","Aachen, Eilendorf St. Severin",,"50.780065000000","6.151955000000",0,,0,"H.1"
000000128502,"","Aachen, Eilendorf St. Severin",,"50.779911000000","6.151936000000",0,,0,"H.2"
000000128701,"","Aachen, Eilendorf Stapperstraße",,"50.783969000000","6.152356000000",0,,0,"H.1"
000000128702,"","Aachen, Eilendorf Stapperstraße",,"50.783775000000","6.152126000000",0,,0,"H.2"
000000128901,"","Aachen, Eilendorf Stollenweg",,"50.782199000000","6.156465000000",0,,0,"H.1"
000000129101,"","Aachen, Neuhaus",,"50.756049000000","6.132185000000",0,,0,"H.1"
000000129102,"","Aachen, Neuhaus",,"50.756073000000","6.132099000000",0,,0,"H.2"
000000129301,"","Aachen, Zeppelinstraße",,"50.768583000000","6.121419000000",0,,0,"H.1"
000000129302,"","Aachen, Zeppelinstraße",,"50.767746000000","6.122846000000",0,,0,"H.2"
000000129501,"","Aachen, Adenauerallee",,"50.765951000000","6.127381000000",0,,0,"H.1"
000000129502,"","Aachen, Adenauerallee",,"50.765464000000","6.128049000000",0,,0,"H.2"
000000129503,"","Aachen, Adenauerallee",,"50.765352000000","6.126454000000",0,,0,"H.3"
000000129504,"","Aachen, Adenauerallee",,"50.765728000000","6.126388000000",0,,0,"H.4"
000000129701,"","Aachen, Drimborn",,"50.762996000000","6.120641000000",0,,0,"H.1"
000000129702,"","Aachen, Drimborn",,"50.762816000000","6.120652000000",0,,0,"H.2"
000000129901,"","Aachen, Drosselweg",,"50.764597000000","6.131577000000",0,,0,"H.1"
000000129902,"","Aachen, Drosselweg",,"50.764499000000","6.131612000000",0,,0,"H.2"
000000130101,"","Aachen, Forster Linde",,"50.760052000000","6.132224000000",0,,0,"H.1"
000000130102,"","Aachen, Forster Linde",,"50.760606000000","6.131339000000",0,,0,"H.2"
000000130301,"","Aachen, Hasencleverstraße",,"50.766058000000","6.118623000000",0,,0,"H.1"
000000130302,"","Aachen, Hasencleverstraße",,"50.766206000000","6.118770000000",0,,0,"H.2"
000000130501,"","Aachen, Hickelweg",,"50.769311000000","6.131615000000",0,,0,"H.1"
000000130502,"","Aachen, Hickelweg",,"50.768443000000","6.130675000000",0,,0,"H.2"
000000130701,"","Aachen, Meisenweg",,"50.768020000000","6.137623000000",0,,0,"H.1"
000000130702,"","Aachen, Meisenweg",,"50.767563000000","6.137722000000",0,,0,"H.2"
000000130901,"","Aachen, Schönforst",,"50.762847000000","6.134308000000",0,,0,"H.1"
000000130902,"","Aachen, Schönforst",,"50.762601000000","6.134522000000",0,,0,"H.2"
000000131101,"","Aachen, Schwalbenweg",,"50.766431000000","6.134458000000",0,,0,"H.1"
000000131102,"","Aachen, Schwalbenweg",,"50.766445000000","6.135024000000",0,,0,"H.2"
000000131301,"","Aachen, Staudenweg",,"50.762675000000","6.128050000000",0,,0,"H.1"
000000131302,"","Aachen, Staudenweg",,"50.762881000000","6.127655000000",0,,0,"H.2"
000000131501,"","Aachen, Tierpark",,"50.764202000000","6.116681000000",0,,0,"H.1"
000000131502,"","Aachen, Tierpark",,"50.764146000000","6.116599000000",0,,0,"H.2"
000000131701,"","Aachen, Siegel",,"50.752657000000","6.098022000000",0,,0,"H.1"
000000131702,"","Aachen, Siegel",,"50.752097000000","6.098283000000",0,,0,"H.2"
000000131704,"","Aachen, Siegel",,"50.752341000000","6.096893000000",0,,0,"H.4"
000000131901,"","Aachen, Waldfriedhof",,"50.744912000000","6.107787000000",0,,0,"H.1"
000000131902,"","Aachen, Waldfriedhof",,"50.745735000000","6.107977000000",0,,0,"H.2"
000000132001,"","Aachen, Philipp-Neri-Weg (Reutershag)",,"50.770785000000","6.039123000000",0,,0,"H.1"
000000132002,"","Aachen, Philipp-Neri-Weg (Reutershag)",,"50.770619000000","6.038949000000",0,,0,"H.2"
000000132101,"","Aachen, Bayernallee",,"50.755506000000","6.095378000000",0,,0,"H.1"
000000132102,"","Aachen, Bayernallee",,"50.755468000000","6.095295000000",0,,0,"H.2"
000000132301,"","Aachen, Bismarckturm",,"50.748259000000","6.102746000000",0,,0,"H.1"
000000132302,"","Aachen, Bismarckturm",,"50.747348000000","6.103355000000",0,,0,"H.2"
000000132501,"","Aachen, Buschhausen (Kornelimünsterweg)",,"50.753709000000","6.103770000000",0,,0,"H.1"
000000132502,"","Aachen, Buschhausen (Kornelimünsterweg)",,"50.753506000000","6.103939000000",0,,0,"H.2"
000000132701,"","Aachen, Forster Weg",,"50.757361000000","6.100907000000",0,,0,"H.1"
000000132702,"","Aachen, Forster Weg",,"50.757233000000","6.100816000000",0,,0,"H.2"
000000132901,"","Aachen, Fuchserde (Waldfriedhof Nord)",,"50.750854000000","6.110143000000",0,,0,"H.1"
000000132902,"","Aachen, Fuchserde (Waldfriedhof Nord)",,"50.750862000000","6.109760000000",0,,0,"H.2"
000000133101,"","Aachen, Löwenstein-Kaserne",,"50.752025000000","6.106951000000",0,,0,"H.1"
000000133102,"","Aachen, Löwenstein-Kaserne",,"50.751959000000","6.106828000000",0,,0,"H.2"
000000133301,"","Aachen, Rathenauallee",,"50.757416000000","6.097866000000",0,,0,"H.1"
000000133302,"","Aachen, Rathenauallee",,"50.757371000000","6.097922000000",0,,0,"H.2"
000000133501,"","Aachen, Schöntal",,"50.747549000000","6.114727000000",0,,0,"H.1"
000000133502,"","Aachen, Schöntal",,"50.747503000000","6.114674000000",0,,0,"H.2"
000000133701,"","Aachen, Debyestraße",,"50.761395000000","6.154706000000",0,,0,"H.1"
000000133702,"","Aachen, Debyestraße",,"50.761478000000","6.154403000000",0,,0,"H.2"
000000133901,"","Aachen, Gut Weide",,"50.763386000000","6.151536000000",0,,0,"H.1"
000000133902,"","Aachen, Gut Weide",,"50.763695000000","6.150907000000",0,,0,"H.2"
000000134101,"","Aachen, Kellershaustraße",,"50.766377000000","6.164630000000",0,,0,"H.1"
000000134102,"","Aachen, Kellershaustraße",,"50.765602000000","6.163443000000",0,,0,"H.2"
000000134301,"","Aachen, Rödgerbach",,"50.768832000000","6.142495000000",0,,0,"H.1"
000000134302,"","Aachen, Rödgerbach",,"50.768835000000","6.142254000000",0,,0,"H.2"
000000134501,"","Aachen, Zentis",,"50.763733000000","6.160223000000",0,,0,"H.1"
000000134502,"","Aachen, Zentis",,"50.763898000000","6.160695000000",0,,0,"H.2"
000000134701,"","Aachen, Zieglerstraße",,"50.765854000000","6.147996000000",0,,0,"H.1"
000000134702,"","Aachen, Zieglerstraße",,"50.766190000000","6.147380000000",0,,0,"H.2"
000000134901,"","Aachen, Am Gut Wolf",,"50.788689000000","6.104077000000",0,,0,"H.1"
000000134902,"","Aachen, Am Gut Wolf",,"50.788919000000","6.104630000000",0,,0,"H.2"
000000135301,"","Aachen, Feldchen",,"50.797470000000","6.107025000000",0,,0,"H.1"
000000135302,"","Aachen, Feldchen",,"50.797179000000","6.106901000000",0,,0,"H.2"
000000135501,"","Aachen, Grüner Winkel",,"50.795451000000","6.107945000000",0,,0,"H.1"
000000135502,"","Aachen, Grüner Winkel",,"50.795641000000","6.107976000000",0,,0,"H.2"
000000135701,"","Aachen, Liebigstraße",,"50.788660000000","6.114878000000",0,,0,"H.1"
000000135702,"","Aachen, Liebigstraße",,"50.789372000000","6.116026000000",0,,0,"H.2"
000000135901,"","Aachen, Lukasstraße",,"50.791966000000","6.108160000000",0,,0,"H.1"
000000135902,"","Aachen, Lukasstraße",,"50.791841000000","6.108196000000",0,,0,"H.2"
000000136101,"","Aachen, Eulershof",,"50.798376000000","6.104755000000",0,,0,"H.1"
000000136102,"","Aachen, Eulershof",,"50.799383000000","6.106169000000",0,,0,"H.2"
000000136103,"","Aachen, Eulershof",,"50.799072000000","6.103789000000",0,,0,"H.3"
000000136104,"","Aachen, Eulershof",,"50.799093000000","6.104668000000",0,,0,"H.4"
000000136301,"","Aachen, Prager Ring",,"50.791553000000","6.118361000000",0,,0,"H.1"
000000136302,"","Aachen, Prager Ring",,"50.792229000000","6.119511000000",0,,0,"H.2"
000000136303,"","Aachen, Prager Ring",,"50.792144000000","6.118622000000",0,,0,"H.3"
000000136304,"","Aachen, Prager Ring",,"50.791457000000","6.119204000000",0,,0,"H.4"
000000136501,"","Aachen, Strangenhäuschen",,"50.803650000000","6.109937000000",0,,0,"H.1"
000000136502,"","Aachen, Strangenhäuschen",,"50.803520000000","6.110157000000",0,,0,"H.2"
000000136701,"","Aachen, Talbot",,"50.784614000000","6.109111000000",0,,0,"H.1"
000000136702,"","Aachen, Talbot",,"50.784574000000","6.109312000000",0,,0,"H.2"
000000136901,"","Aachen, Haaren Am Haarberg",,"50.801744000000","6.132197000000",0,,0,"H.1"
000000136902,"","Aachen, Haaren Am Haarberg",,"50.801720000000","6.132327000000",0,,0,"H.2"
000000137101,"","Aachen, Haaren Birkenweg",,"50.797991000000","6.129546000000",0,,0,"H.1"
000000137301,"","Aachen, Haaren Denkmal",,"50.798904000000","6.127531000000",0,,0,"H.1"
000000137302,"","Aachen, Haaren Denkmal",,"50.798303000000","6.126873000000",0,,0,"H.2"
000000137501,"","Aachen, Haaren Markt",,"50.795025000000","6.125626000000",0,,0,"H.1"
000000137502,"","Aachen, Haaren Markt",,"50.795042000000","6.125966000000",0,,0,"H.2"
000000137701,"","Aachen, Haaren Tonbrennerstraße",,"50.795878000000","6.130683000000",0,,0,"H.1"
000000137702,"","Aachen, Haaren Tonbrennerstraße",,"50.795909000000","6.130128000000",0,,0,"H.2"
000000137901,"","Aachen, Gartenstraße",,"50.770382000000","6.068739000000",0,,0,"H.1"
000000137902,"","Aachen, Gartenstraße",,"50.770412000000","6.069574000000",0,,0,"H.2"
000000138101,"","Aachen, Am Backes",,"50.763826000000","6.055221000000",0,,0,"H.1"
000000138102,"","Aachen, Am Backes",,"50.764237000000","6.055465000000",0,,0,"H.2"
000000138301,"","Aachen, Am Friedrich",,"50.763380000000","6.052171000000",0,,0,"H.1"
000000138302,"","Aachen, Am Friedrich",,"50.763449000000","6.052763000000",0,,0,"H.2"
000000138501,"","Aachen, Am Neuenhof",,"50.766128000000","6.059842000000",0,,0,"H.1"
000000138502,"","Aachen, Am Neuenhof",,"50.766183000000","6.059881000000",0,,0,"H.2"
000000138701,"","Aachen, Barbarossaplatz",,"50.764508000000","6.076609000000",0,,0,"H.1"
000000138702,"","Aachen, Barbarossaplatz",,"50.764300000000","6.075104000000",0,,0,"H.2"
000000138901,"","Aachen, Couven-Gymnasium",,"50.763307000000","6.072457000000",0,,0,"H.1"
000000138902,"","Aachen, Couven-Gymnasium",,"50.763213000000","6.071953000000",0,,0,"H.2"
000000139101,"","Aachen, Franziskushospital",,"50.764861000000","6.070587000000",0,,0,"H.1"
000000139102,"","Aachen, Franziskushospital",,"50.764727000000","6.070255000000",0,,0,"H.2"
000000139301,"","Aachen, Hanbruch Schwimmhalle West Ulla-Klinger-H.",,"50.768073000000","6.055635000000",0,,0,"H.1"
000000139302,"","Aachen, Hanbruch Schwimmhalle West Ulla-Klinger-H.",,"50.768076000000","6.055748000000",0,,0,"H.2"
000000139501,"","Aachen, Jüdischer Friedhof",,"50.766776000000","6.072340000000",0,,0,"H.1"
000000139502,"","Aachen, Jüdischer Friedhof",,"50.767083000000","6.072406000000",0,,0,"H.2"
000000139701,"","Aachen, Kronenberg",,"50.765773000000","6.052531000000",0,,0,"H.1"
000000139702,"","Aachen, Kronenberg",,"50.765881000000","6.052893000000",0,,0,"H.2"
000000139901,"","Aachen, Kuckelkorn",,"50.769723000000","6.061829000000",0,,0,"H.1"
000000139902,"","Aachen, Kuckelkorn",,"50.770005000000","6.062691000000",0,,0,"H.2"
000000140001,"","Aachen, Weststraße",,"50.771223000000","6.060317000000",0,,0,"H.1"
000000140101,"","Aachen, Preusweg",,"50.761533000000","6.066682000000",0,,0,"H.1"
000000140102,"","Aachen, Preusweg",,"50.760918000000","6.065813000000",0,,0,"H.2"
000000140103,"","Aachen, Preusweg",,"50.760819000000","6.066883000000",0,,0,"H.3"
000000140105,"","Aachen, Preusweg",,"50.761087000000","6.065051000000",0,,0,"H.5"
000000140106,"","Aachen, Preusweg",,"50.760920000000","6.064849000000",0,,0,"H.6"
000000140301,"","Aachen, Venskyhäuschen",,"50.768788000000","6.056512000000",0,,0,"H.1"
000000140302,"","Aachen, Venskyhäuschen",,"50.768955000000","6.055991000000",0,,0,"H.2"
000000140501,"","Aachen, Welkenrather Straße",,"50.772154000000","6.064443000000",0,,0,"H.1"
000000140701,"","Aachen, Horbach Forsterheide",,"50.826766000000","6.051345000000",0,,0,"H.1"
000000140702,"","Aachen, Horbach Forsterheide",,"50.827372000000","6.051108000000",0,,0,"H.2"
000000140703,"","Aachen, Horbach Forsterheide",,"50.827125000000","6.051649000000",0,,0,"H.3"
000000140901,"","Aachen, Horbach Forsterheide Kreuz",,"50.828308000000","6.057880000000",0,,0,"H.1"
000000140902,"","Aachen, Horbach Forsterheide Kreuz",,"50.828374000000","6.057663000000",0,,0,"H.2"
000000141101,"","Aachen, Horbach",,"50.835905000000","6.041052000000",0,,0,"H.1"
000000141102,"","Aachen, Horbach",,"50.835970000000","6.041133000000",0,,0,"H.2"
000000141103,"","Aachen, Horbach",,"50.836133000000","6.041137000000",0,,0,"H.3"
000000141301,"","Aachen, Horbach Kirche",,"50.833123000000","6.044850000000",0,,0,"H.1"
000000141302,"","Aachen, Horbach Kirche",,"50.833044000000","6.045253000000",0,,0,"H.2"
000000141501,"","Aachen, Horbach Linde",,"50.831198000000","6.048381000000",0,,0,"H.1"
000000141502,"","Aachen, Horbach Linde",,"50.831446000000","6.048238000000",0,,0,"H.2"
000000141701,"","Aachen, Am Hügel",,"50.775037000000","6.062844000000",0,,0,"H.1"
000000141702,"","Aachen, Am Hügel",,"50.774935000000","6.061985000000",0,,0,"H.2"
000000141901,"","Aachen, Am Weißenberg",,"50.775759000000","6.066856000000",0,,0,"H.1"
000000141902,"","Aachen, Am Weißenberg",,"50.776001000000","6.067536000000",0,,0,"H.2"
000000142101,"","Aachen, Auf der Hörn",,"50.781409000000","6.054400000000",0,,0,"H.1"
000000142301,"","Aachen, Forckenbeckstraße",,"50.785689000000","6.050767000000",0,,0,"H.1"
000000142302,"","Aachen, Forckenbeckstraße",,"50.785332000000","6.050534000000",0,,0,"H.2"
000000142701,"","Aachen, Halifaxstraße",,"50.779743000000","6.057526000000",0,,0,"H.1"
000000142703,"","Aachen, Halifaxstraße",,"50.779797000000","6.058956000000",0,,0,"H.3"
000000142704,"","Aachen, Halifaxstraße",,"50.779685000000","6.058807000000",0,,0,"H.4"
000000142901,"","Aachen, Hörn Kastanienweg",,"50.785600000000","6.054391000000",0,,0,"H.1"
000000142902,"","Aachen, Hörn Kastanienweg",,"50.785484000000","6.054753000000",0,,0,"H.2"
000000143101,"","Aachen, Hörn Brücke",,"50.787085000000","6.051545000000",0,,0,"H.1"
000000143102,"","Aachen, Hörn Brücke",,"50.787348000000","6.051287000000",0,,0,"H.2"
000000143301,"","Aachen, Campus Melaten (Physikzentrum)",,"50.782666000000","6.050773000000",0,,0,"H.1"
000000143302,"","Aachen, Campus Melaten (Physikzentrum)",,"50.782462000000","6.050517000000",0,,0,"H.2"
000000143501,"","Aachen, Hörnstieg",,"50.784113000000","6.057834000000",0,,0,"H.1"
000000143502,"","Aachen, Hörnstieg",,"50.784330000000","6.057522000000",0,,0,"H.2"
000000143901,"","Aachen, Melatener Straße",,"50.777021000000","6.058761000000",0,,0,"H.1"
000000143902,"","Aachen, Melatener Straße",,"50.776690000000","6.058810000000",0,,0,"H.2"
000000144101,"","Aachen, Mies-van-der-Rohe-Straße",,"50.780503000000","6.068418000000",0,,0,"H.1"
000000144102,"","Aachen, Mies-van-der-Rohe-Straße",,"50.780540000000","6.068458000000",0,,0,"H.2"
000000144301,"","Aachen, Muffet",,"50.774781000000","6.057327000000",0,,0,"H.1"
000000144302,"","Aachen, Muffet",,"50.774704000000","6.057460000000",0,,0,"H.2"
000000144501,"","Aachen, Seffenter Weg",,"50.781749000000","6.064310000000",0,,0,"H.1"
000000144502,"","Aachen, Seffenter Weg",,"50.782003000000","6.064408000000",0,,0,"H.2"
000000144503,"","Aachen, Seffenter Weg",,"50.781966000000","6.064367000000",0,,0,"H.3"
000000144701,"","Aachen, Otto-Blumenthal-Straße",,"50.780436000000","6.050786000000",0,,0,"H.1"
000000144702,"","Aachen, Otto-Blumenthal-Straße",,"50.780286000000","6.050568000000",0,,0,"H.2"
000000144901,"","Aachen, Wendlingweg",,"50.777238000000","6.051314000000",0,,0,"H.1"
000000144902,"","Aachen, Wendlingweg",,"50.777314000000","6.050429000000",0,,0,"H.2"
000000145101,"","Aachen, ASEAG",,"50.785029000000","6.130284000000",0,,0,"H.1"
000000145102,"","Aachen, ASEAG",,"50.784941000000","6.130715000000",0,,0,"H.2"
000000145301,"","Aachen, Hüls Elleter Feld",,"50.789762000000","6.138409000000",0,,0,"H.1"
000000145302,"","Aachen, Hüls Elleter Feld",,"50.790079000000","6.138134000000",0,,0,"H.2"
000000145501,"","Aachen, Hüls",,"50.785802000000","6.133912000000",0,,0,"H.1"
000000145502,"","Aachen, Hüls",,"50.785714000000","6.135080000000",0,,0,"H.2"
000000145503,"","Aachen, Hüls",,"50.785533000000","6.134680000000",0,,0,"H.3"
000000145504,"","Aachen, Hüls",,"50.785302000000","6.134439000000",0,,0,"H.4"
000000145701,"","Aachen, Hüls Friedhof",,"50.786451000000","6.139108000000",0,,0,"H.1"
000000145702,"","Aachen, Hüls Friedhof",,"50.786242000000","6.139021000000",0,,0,"H.2"
000000145901,"","Aachen, Hüls Gewerbegebiet",,"50.781268000000","6.135352000000",0,,0,"H.1"
000000145902,"","Aachen, Hüls Gewerbegebiet",,"50.781602000000","6.135048000000",0,,0,"H.2"
000000145903,"","Aachen, Hüls Gewerbegebiet",,"50.781516000000","6.135195000000",0,,0,"H.3"
000000146101,"","Aachen, Hüls Schulzentrum",,"50.789464000000","6.124818000000",0,,0,"H.1"
000000146102,"","Aachen, Hüls Schulzentrum",,"50.790281000000","6.124044000000",0,,0,"H.2"
000000146301,"","Aachen, Schönebergstraße",,"50.788994000000","6.140442000000",0,,0,"H.1"
000000146302,"","Aachen, Schönebergstraße",,"50.788928000000","6.140702000000",0,,0,"H.2"
000000146501,"","Aachen, Wilmersdorfer Straße",,"50.786329000000","6.137044000000",0,,0,"H.1"
000000146502,"","Aachen, Wilmersdorfer Straße",,"50.786277000000","6.137132000000",0,,0,"H.2"
000000146701,"","Aachen, Kornelimünster Auf der Gallich",,"50.731684000000","6.170595000000",0,,0,"H.1"
000000146702,"","Aachen, Kornelimünster Auf der Gallich",,"50.731808000000","6.170134000000",0,,0,"H.2"
000000147101,"","Aachen, Kornelimünster Schulberg",,"50.728623000000","6.177526000000",0,,0,"H.1"
000000147102,"","Aachen, Kornelimünster Schulberg",,"50.729134000000","6.177439000000",0,,0,"H.2"
000000147301,"","Aachen, Kornelimünster Meischenfeld",,"50.726020000000","6.172538000000",0,,0,"H.1"
000000147302,"","Aachen, Kornelimünster Meischenfeld",,"50.726612000000","6.173580000000",0,,0,"H.2"
000000147501,"","Aachen, Kornelimünster Napoleonsberg (Eifelsteig)",,"50.729882000000","6.179378000000",0,,0,"H.1"
000000147502,"","Aachen, Kornelimünster Napoleonsberg (Eifelsteig)",,"50.730077000000","6.179253000000",0,,0,"H.2"
000000147701,"","Aachen, Kornelimünster Steinkaulweid",,"50.730722000000","6.173573000000",0,,0,"H.1"
000000147702,"","Aachen, Kornelimünster Steinkaulweid",,"50.730774000000","6.173131000000",0,,0,"H.2"
000000147901,"","Aachen, Kornelimünster Venwegener Straße",,"50.727566000000","6.187751000000",0,,0,"H.1"
000000147902,"","Aachen, Kornelimünster Venwegener Straße",,"50.726851000000","6.188304000000",0,,0,"H.2"
000000148101,"","Aachen, Danziger Straße",,"50.754970000000","6.143198000000",0,,0,"H.1"
000000148102,"","Aachen, Danziger Straße",,"50.754780000000","6.142785000000",0,,0,"H.2"
000000148501,"","Aachen, Glatzer Straße",,"50.752142000000","6.139401000000",0,,0,"H.1"
000000148502,"","Aachen, Glatzer Straße",,"50.751799000000","6.138968000000",0,,0,"H.2"
000000148701,"","Aachen, Gut Grauenhof",,"50.748302000000","6.137962000000",0,,0,"H.1"
000000148702,"","Aachen, Gut Grauenhof",,"50.748644000000","6.137629000000",0,,0,"H.2"
000000148901,"","Aachen, Königsberger Straße",,"50.757564000000","6.146302000000",0,,0,"H.1"
000000148902,"","Aachen, Königsberger Straße",,"50.756948000000","6.147205000000",0,,0,"H.2"
000000149102,"","Aachen, Tilsiter Straße",,"50.757506000000","6.141328000000",0,,0,"H.2"
000000149301,"","Aachen, Trierer Platz",,"50.760946000000","6.138580000000",0,,0,"H.1"
000000149302,"","Aachen, Trierer Platz",,"50.760222000000","6.139872000000",0,,0,"H.2"
000000149304,"","Aachen, Trierer Platz",,"50.760312000000","6.138746000000",0,,0,"H.4"
000000149501,"","Aachen, Laurensberg Abzweigung Orsbach",,"50.800683000000","6.048616000000",0,,0,"H.1"
000000149502,"","Aachen, Laurensberg Abzweigung Orsbach",,"50.800741000000","6.048755000000",0,,0,"H.2"
000000149701,"","Aachen, Laurensberg Adele-Weidtman-Straße",,"50.798899000000","6.066684000000",0,,0,"H.1"
000000149702,"","Aachen, Laurensberg Adele-Weidtman-Straße",,"50.799114000000","6.067352000000",0,,0,"H.2"
000000149901,"","Aachen, Laurensberg Schulzentrum",,"50.804669000000","6.047570000000",0,,0,"H.1"
000000149902,"","Aachen, Laurensberg Schulzentrum",,"50.803735000000","6.047643000000",0,,0,"H.2"
000000150101,"","Aachen, Laurensberg",,"50.796996000000","6.063241000000",0,,0,"H.1"
000000150102,"","Aachen, Laurensberg",,"50.796636000000","6.063604000000",0,,0,"H.2"
000000150301,"","Aachen, Laurensberg Haus Linde",,"50.803400000000","6.060738000000",0,,0,"H.1"
000000150302,"","Aachen, Laurensberg Haus Linde",,"50.804959000000","6.060853000000",0,,0,"H.2"
000000150501,"","Aachen, Laurensberg Kirche",,"50.801452000000","6.051634000000",0,,0,"H.1"
000000150502,"","Aachen, Laurensberg Kirche",,"50.801515000000","6.051644000000",0,,0,"H.2"
000000150701,"","Aachen, Laurensberg Rathaus",,"50.797997000000","6.059445000000",0,,0,"H.1"
000000150702,"","Aachen, Laurensberg Rathaus",,"50.797823000000","6.060719000000",0,,0,"H.2"
000000150901,"","Aachen, Laurensberg Laurentiusstraße",,"50.802594000000","6.053393000000",0,,0,"H.1"
000000150902,"","Aachen, Laurensberg Laurentiusstraße",,"50.802812000000","6.054174000000",0,,0,"H.2"
000000151101,"","Aachen, Laurensberg Pannhauser Straße",,"50.799057000000","6.054027000000",0,,0,"H.1"
000000151102,"","Aachen, Laurensberg Pannhauser Straße",,"50.799024000000","6.054498000000",0,,0,"H.2"
000000151301,"","Aachen, Laurensberg Rahe",,"50.801060000000","6.067826000000",0,,0,"H.1"
000000151501,"","Aachen, Laurensberg Rahe Im Ring",,"50.803256000000","6.067149000000",0,,0,"H.1"
000000151701,"","Aachen, Laurensberg Rosenhügel",,"50.800256000000","6.061957000000",0,,0,"H.1"
000000151702,"","Aachen, Laurensberg Rosenhügel",,"50.800646000000","6.061734000000",0,,0,"H.2"
000000151901,"","Aachen, Laurensberg Teichwinkel",,"50.795434000000","6.063012000000",0,,0,"H.1"
000000151902,"","Aachen, Laurensberg Teichwinkel",,"50.795441000000","6.063296000000",0,,0,"H.2"
000000152101,"","Aachen, Laurensberg Tittardshang",,"50.801924000000","6.065330000000",0,,0,"H.1"
000000152102,"","Aachen, Laurensberg Tittardshang",,"50.802069000000","6.065392000000",0,,0,"H.2"
000000152301,"","Aachen, Laurensberg Viadukt",,"50.794680000000","6.056318000000",0,,0,"H.1"
000000152302,"","Aachen, Laurensberg Viadukt",,"50.794591000000","6.056352000000",0,,0,"H.2"
000000152501,"","Aachen, Laurensberg Wildbach",,"50.793394000000","6.066305000000",0,,0,"H.1"
000000152502,"","Aachen, Laurensberg Wildbach",,"50.793460000000","6.066414000000",0,,0,"H.2"
000000152701,"","Aachen, Kreuzerdriesch",,"50.742036000000","6.126039000000",0,,0,"H.1"
000000152702,"","Aachen, Kreuzerdriesch",,"50.742870000000","6.124854000000",0,,0,"H.2"
000000152901,"","Aachen, Lintert",,"50.746648000000","6.126324000000",0,,0,"H.1"
000000152902,"","Aachen, Lintert",,"50.746654000000","6.126196000000",0,,0,"H.2"
000000153101,"","Aachen, Lintert Friedhof",,"50.747422000000","6.125241000000",0,,0,"H.1"
000000153301,"","Aachen, Lintert Schießstand",,"50.751049000000","6.129343000000",0,,0,"H.1"
000000153302,"","Aachen, Lintert Schießstand",,"50.751110000000","6.129269000000",0,,0,"H.2"
000000153501,"","Aachen, Oberforstbach Auf dem Bahnes",,"50.713335000000","6.144089000000",0,,0,"H.1"
000000153502,"","Aachen, Oberforstbach Auf dem Bahnes",,"50.713557000000","6.144344000000",0,,0,"H.2"
000000153701,"","Aachen, Oberforstbach Kohlshof",,"50.719528000000","6.126326000000",0,,0,"H.1"
000000153702,"","Aachen, Oberforstbach Kohlshof",,"50.720466000000","6.126439000000",0,,0,"H.2"
000000153901,"","Aachen, Schleckheim Kroitzheider Weg",,"50.721470000000","6.148978000000",0,,0,"H.1"
000000153902,"","Aachen, Schleckheim Kroitzheider Weg",,"50.721244000000","6.149686000000",0,,0,"H.2"
000000154101,"","Aachen, Oberforstbach Laschet",,"50.716206000000","6.132792000000",0,,0,"H.1"
000000154102,"","Aachen, Oberforstbach Laschet",,"50.716076000000","6.132630000000",0,,0,"H.2"
000000154103,"","Aachen, Oberforstbach Laschet",,"50.715228000000","6.132511000000",0,,0,"H.3 B258"
000000154104,"","Aachen, Oberforstbach Laschet",,"50.716607000000","6.131166000000",0,,0,"H.4 B258"
000000154301,"","Aachen, Lichtenbusch",,"50.712966000000","6.123597000000",0,,0,"H.1"
000000154302,"","Aachen, Lichtenbusch",,"50.712918000000","6.123854000000",0,,0,"H.2"
000000154303,"","Aachen, Lichtenbusch",,"50.713064000000","6.123180000000",0,,0,"H.3"
000000154304,"","Aachen, Lichtenbusch",,"50.713065000000","6.122854000000",0,,0,"H.4"
000000154501,"","Aachen, Lichtenbusch Erlenpütz",,"50.714955000000","6.129850000000",0,,0,"H.1"
000000154502,"","Aachen, Lichtenbusch Erlenpütz",,"50.714902000000","6.129868000000",0,,0,"H.2"
000000154601,"","Aachen, Lichtenbusch Kesselstraße",,"50.712250000000","6.132127000000",0,,0,"H.1"
000000154701,"","Aachen, Lichtenbusch Kirche",,"50.711738000000","6.124493000000",0,,0,"H.1"
000000154702,"","Aachen, Lichtenbusch Kirche",,"50.711956000000","6.124239000000",0,,0,"H.2"
000000154801,"","Aachen, Lichtenbuscher Weg",,"50.711143000000","6.126287000000",0,,0,"H.1"
000000154901,"","Aachen, Lichtenbusch Broich (Zollamt)",,"50.715462000000","6.121970000000",0,,0,"H.1"
000000154902,"","Aachen, Lichtenbusch Broich (Zollamt)",,"50.715290000000","6.121910000000",0,,0,"H.2"
000000155101,"","Aachen, Schleckheim Nerscheider Weg",,"50.717648000000","6.150500000000",0,,0,"H.1"
000000155102,"","Aachen, Schleckheim Nerscheider Weg",,"50.717371000000","6.149468000000",0,,0,"H.2"
000000155301,"","Aachen, Nütheim",,"50.716952000000","6.165476000000",0,,0,"H.1"
000000155302,"","Aachen, Nütheim",,"50.716733000000","6.165716000000",0,,0,"H.2"
000000155501,"","Aachen, Oberforstbach Gewerbegebiet",,"50.711044000000","6.137952000000",0,,0,"H.1"
000000155502,"","Aachen, Oberforstbach Gewerbegebiet",,"50.711377000000","6.136883000000",0,,0,"H.2"
000000155503,"","Aachen, Oberforstbach Gewerbegebiet",,"50.710551000000","6.138053000000",0,,0,"H.3"
000000155701,"","Aachen, Oberforstbach",,"50.724393000000","6.146023000000",0,,0,"H.1"
000000155702,"","Aachen, Oberforstbach",,"50.724244000000","6.145834000000",0,,0,"H.2"
000000155901,"","Aachen, Oberforstbach Schule",,"50.721892000000","6.141627000000",0,,0,"H.1"
000000155902,"","Aachen, Oberforstbach Schule",,"50.721832000000","6.141744000000",0,,0,"H.2"
000000156101,"","Aachen, Oberforstbach Pascalstraße",,"50.712472000000","6.141520000000",0,,0,"H.1"
000000156102,"","Aachen, Oberforstbach Pascalstraße",,"50.712148000000","6.140421000000",0,,0,"H.2"
000000156301,"","Aachen, Schleckheim Aachener Straße",,"50.720425000000","6.158139000000",0,,0,"H.1"
000000156302,"","Aachen, Schleckheim Aachener Straße",,"50.720342000000","6.158045000000",0,,0,"H.2"
000000156501,"","Aachen, Schleckheim Kapelle",,"50.720437000000","6.153830000000",0,,0,"H.1"
000000156502,"","Aachen, Schleckheim Kapelle",,"50.720237000000","6.154863000000",0,,0,"H.2"
000000156701,"","Aachen, Schleckheim SCHUMAG",,"50.719042000000","6.154553000000",0,,0,"H.1"
000000156702,"","Aachen, Schleckheim SCHUMAG",,"50.719082000000","6.154352000000",0,,0,"H.2"
000000156901,"","Aachen, Oberforstbach Tannenallee",,"50.718074000000","6.137410000000",0,,0,"H.1"
000000156902,"","Aachen, Oberforstbach Tannenallee",,"50.718415000000","6.138112000000",0,,0,"H.2"
000000157101,"","Aachen, Laurensberg Gut Orth",,"50.800410000000","6.018797000000",0,,0,"H.1"
000000157102,"","Aachen, Laurensberg Gut Orth",,"50.800453000000","6.018369000000",0,,0,"H.2"
000000157301,"","Aachen, Orsbach Lemiers",,"50.786984000000","5.998636000000",0,,0,"H.1"
000000157501,"","Aachen, Orsbach Lemiers Weiher",,"50.789488000000","5.996290000000",0,,0,"H.1"
000000157502,"","Aachen, Orsbach Lemiers Weiher",,"50.789522000000","5.996232000000",0,,0,"H.2"
000000157701,"","Aachen, Orsbach Düserhofstraße",,"50.796150000000","5.998276000000",0,,0,"H.1"
000000157702,"","Aachen, Orsbach Düserhofstraße",,"50.796075000000","5.998479000000",0,,0,"H.2"
000000157901,"","Aachen, Orsbach Schule",,"50.797050000000","5.995848000000",0,,0,"H.1"
000000157902,"","Aachen, Orsbach Schule",,"50.797094000000","5.995802000000",0,,0,"H.2"
000000158101,"","Aachen, Pumpstation",,"50.733695000000","6.043973000000",0,,0,"H.1"
000000158102,"","Aachen, Pumpstation",,"50.733746000000","6.043856000000",0,,0,"H.2"
000000158301,"","Aachen, Entenpfuhler Weg",,"50.738087000000","6.048317000000",0,,0,"H.1"
000000158302,"","Aachen, Entenpfuhler Weg",,"50.738191000000","6.048155000000",0,,0,"H.2"
000000158401,"","Aachen, Montzener Straße",,"50.737949000000","6.042543000000",0,,0,"H.1"
000000158501,"","Aachen, Preuswald",,"50.739341000000","6.043164000000",0,,0,"H.1"
000000158701,"","Aachen, Reimser Straße",,"50.738450000000","6.045956000000",0,,0,"H.1"
000000158702,"","Aachen, Reimser Straße",,"50.739597000000","6.047230000000",0,,0,"H.2"
000000158901,"","Aachen, Unterer Backertsweg (Maria im Tann)",,"50.739630000000","6.051367000000",0,,0,"H.1"
000000158902,"","Aachen, Unterer Backertsweg (Maria im Tann)",,"50.739960000000","6.051956000000",0,,0,"H.2"
000000159101,"","Aachen, Richterich Berensberger Straße",,"50.808801000000","6.060541000000",0,,0,"H.1"
000000159102,"","Aachen, Richterich Berensberger Straße",,"50.808707000000","6.060717000000",0,,0,"H.2"
000000159301,"","Aachen, Richterich Dellstraße",,"50.818177000000","6.060292000000",0,,0,"H.1"
000000159302,"","Aachen, Richterich Dellstraße",,"50.818054000000","6.060073000000",0,,0,"H.2"
000000159501,"","Aachen, Richterich Gierstraße",,"50.817353000000","6.055105000000",0,,0,"H.1"
000000159502,"","Aachen, Richterich Gierstraße",,"50.817270000000","6.054315000000",0,,0,"H.2"
000000159701,"","Aachen, Richterich Hander Weg",,"50.812513000000","6.059711000000",0,,0,"H.1"
000000159702,"","Aachen, Richterich Hander Weg",,"50.813126000000","6.059744000000",0,,0,"H.2"
000000159901,"","Aachen, Richterich Landgraben",,"50.807652000000","6.068847000000",0,,0,"H.1"
000000159902,"","Aachen, Richterich Landgraben",,"50.807572000000","6.068511000000",0,,0,"H.2"
000000160101,"","Aachen, Richterich Lütterbüschgen",,"50.818518000000","6.048500000000",0,,0,"H.1"
000000160102,"","Aachen, Richterich Lütterbüschgen",,"50.818372000000","6.048779000000",0,,0,"H.2"
000000160301,"","Aachen, Richterich Pfalzgrafenstraße",,"50.817857000000","6.051537000000",0,,0,"H.1"
000000160302,"","Aachen, Richterich Pfalzgrafenstraße",,"50.817620000000","6.052120000000",0,,0,"H.2"
000000160501,"","Aachen, Richterich Kirche",,"50.814975000000","6.058506000000",0,,0,"H.1"
000000160502,"","Aachen, Richterich Kirche",,"50.815030000000","6.058573000000",0,,0,"H.2"
000000160701,"","Aachen, Richterich Parkstraße",,"50.808672000000","6.063984000000",0,,0,"H.1"
000000160702,"","Aachen, Richterich Parkstraße",,"50.808300000000","6.065285000000",0,,0,"H.2"
000000160901,"","Aachen, Richterich Rathaus",,"50.811739000000","6.060399000000",0,,0,"H.1"
000000160902,"","Aachen, Richterich Rathaus",,"50.811009000000","6.060686000000",0,,0,"H.2"
000000161101,"","Aachen, Richterich Roder Weg",,"50.817395000000","6.065326000000",0,,0,"H.1"
000000161301,"","Aachen, Richterich Schloss-Schönau-Straße",,"50.813659000000","6.062351000000",0,,0,"H.1"
000000161302,"","Aachen, Richterich Schloss-Schönau-Straße",,"50.813506000000","6.062346000000",0,,0,"H.2"
000000161501,"","Aachen, Richterich Schönauer Friede",,"50.815958000000","6.065742000000",0,,0,"H.1"
000000161502,"","Aachen, Richterich Schönauer Friede",,"50.816235000000","6.066392000000",0,,0,"H.2"
000000161901,"","Aachen, Richterich Siebweg",,"50.807714000000","6.073457000000",0,,0,"H.1"
000000161902,"","Aachen, Richterich Siebweg",,"50.807617000000","6.073548000000",0,,0,"H.2"
000000162101,"","Aachen, Richterich Siedlung Schönau",,"50.810815000000","6.068705000000",0,,0,"H.1"
000000162301,"","Aachen, Richterich Vetschauer Weg",,"50.817320000000","6.057336000000",0,,0,"H.1"
000000162302,"","Aachen, Richterich Vetschauer Weg",,"50.818049000000","6.056992000000",0,,0,"H.2"
000000162303,"","Aachen, Richterich Vetschauer Weg",,"50.817735000000","6.057381000000",0,,0,"H.3"
000000162304,"","Aachen, Richterich Vetschauer Weg",,"50.817459000000","6.056419000000",0,,0,"H.4"
000000162501,"","Aachen, Goethestraße (Hangeweiher)",,"50.761191000000","6.073838000000",0,,0,"H.1"
000000162502,"","Aachen, Goethestraße (Hangeweiher)",,"50.761800000000","6.073005000000",0,,0,"H.2"
000000162503,"","Aachen, Goethestraße (Hangeweiher)",,"50.762064000000","6.074549000000",0,,0,"H.3"
000000162701,"","Aachen, Brüsseler Ring",,"50.753787000000","6.070925000000",0,,0,"H.1"
000000162702,"","Aachen, Brüsseler Ring",,"50.753966000000","6.070148000000",0,,0,"H.2"
000000163302,"","Aachen, Im Brockenfeld",,"50.758833000000","6.078806000000",0,,0,"H.2"
000000163701,"","Aachen, Ronheide (Jugendherberge)",,"50.750991000000","6.071709000000",0,,0,"H.1"
000000163702,"","Aachen, Ronheide (Jugendherberge)",,"50.750589000000","6.071805000000",0,,0,"H.2"
000000163901,"","Aachen, Ronheider Berg",,"50.748807000000","6.068542000000",0,,0,"H.1"
000000163902,"","Aachen, Ronheider Berg",,"50.748869000000","6.068495000000",0,,0,"H.2"
000000164101,"","Aachen, Yorckstraße",,"50.757955000000","6.074281000000",0,,0,"H.1"
000000164102,"","Aachen, Yorckstraße",,"50.756939000000","6.073550000000",0,,0,"H.2"
000000164301,"","Aachen, Eisenbahnweg",,"50.772620000000","6.125355000000",0,,0,"H.1"
000000164302,"","Aachen, Eisenbahnweg",,"50.772557000000","6.125359000000",0,,0,"H.2"
000000164501,"","Aachen, Bahnhof Rothe Erde (Bus)",,"50.770251000000","6.117548000000",0,,0,"H.1"
000000164502,"","Aachen, Bahnhof Rothe Erde (Bus)",,"50.770025000000","6.117753000000",0,,0,"H.2"
000000164701,"","Aachen, Am Rott",,"50.778956000000","6.124754000000",0,,0,"H.1"
000000164702,"","Aachen, Am Rott",,"50.778845000000","6.124619000000",0,,0,"H.2"
000000164901,"","Aachen, Eilendorf Apolloniaweg",,"50.779559000000","6.168486000000",0,,0,"H.1"
000000164902,"","Aachen, Eilendorf Apolloniaweg",,"50.779381000000","6.168184000000",0,,0,"H.2"
000000165101,"","Aachen, Barbarakirche",,"50.777007000000","6.136195000000",0,,0,"H.1"
000000165102,"","Aachen, Barbarakirche",,"50.776907000000","6.136144000000",0,,0,"H.2"
000000165301,"","Aachen, Dresdener Straße",,"50.780513000000","6.122246000000",0,,0,"H.1"
000000165302,"","Aachen, Dresdener Straße",,"50.780381000000","6.122368000000",0,,0,"H.2"
000000165501,"","Aachen, Elsassstraße",,"50.772051000000","6.113616000000",0,,0,"H.1"
000000165502,"","Aachen, Elsassstraße",,"50.771860000000","6.113529000000",0,,0,"H.2"
000000165504,"","Aachen, Elsassstraße",,"50.772368000000","6.113682000000",0,,0,"H.4"
000000165701,"","Aachen, Fringsgraben",,"50.776757000000","6.139203000000",0,,0,"H.1"
000000165702,"","Aachen, Fringsgraben",,"50.776669000000","6.140017000000",0,,0,"H.2"
000000165901,"","Aachen, Geschwister-Scholl-Gymnasium",,"50.775883000000","6.119438000000",0,,0,"H.1"
000000165902,"","Aachen, Geschwister-Scholl-Gymnasium",,"50.775840000000","6.119526000000",0,,0,"H.2"
000000166101,"","Aachen, Hohenzollernplatz",,"50.776404000000","6.112483000000",0,,0,"H.1"
000000166102,"","Aachen, Hohenzollernplatz",,"50.776297000000","6.112546000000",0,,0,"H.2"
000000166103,"","Aachen, Hohenzollernplatz",,"50.775987000000","6.112381000000",0,,0,"H.3"
000000166104,"","Aachen, Hohenzollernplatz",,"50.775162000000","6.112446000000",0,,0,"H.4"
000000166301,"","Aachen, Kennedypark",,"50.773672000000","6.116240000000",0,,0,"H.1"
000000166302,"","Aachen, Kennedypark",,"50.773783000000","6.116347000000",0,,0,"H.2"
000000166501,"","Aachen, Mataréstraße",,"50.771159000000","6.120083000000",0,,0,"H.1"
000000166502,"","Aachen, Mataréstraße",,"50.771269000000","6.120161000000",0,,0,"H.2"
000000166701,"","Aachen, Philips",,"50.774049000000","6.130048000000",0,,0,"H.1"
000000166702,"","Aachen, Philips",,"50.774501000000","6.130517000000",0,,0,"H.2"
000000166901,"","Aachen, Pongs",,"50.772641000000","6.128773000000",0,,0,"H.1"
000000166902,"","Aachen, Pongs",,"50.772564000000","6.128536000000",0,,0,"H.2"
000000167101,"","Aachen, Rottstraße",,"50.777362000000","6.127959000000",0,,0,"H.1"
000000167102,"","Aachen, Rottstraße",,"50.777537000000","6.128132000000",0,,0,"H.2"
000000167301,"","Aachen, Continental",,"50.776533000000","6.130833000000",0,,0,"H.1"
000000167302,"","Aachen, Continental",,"50.776687000000","6.131589000000",0,,0,"H.2"
000000167501,"","Aachen, Schmithof Ardennenstraße",,"50.694670000000","6.163605000000",0,,0,"H.1"
000000167502,"","Aachen, Schmithof Ardennenstraße",,"50.695251000000","6.164165000000",0,,0,"H.2"
000000167701,"","Aachen, Sief Magelspfad",,"50.686280000000","6.147134000000",0,,0,"H.1"
000000167901,"","Aachen, Sief Pfeiferweg",,"50.691348000000","6.150211000000",0,,0,"H.1"
000000168101,"","Aachen, Schmithof Kirche",,"50.693221000000","6.162092000000",0,,0,"H.1"
000000168102,"","Aachen, Schmithof Kirche",,"50.693513000000","6.161877000000",0,,0,"H.2"
000000168301,"","Aachen, Schmithof Schule",,"50.688617000000","6.169889000000",0,,0,"H.1"
000000168302,"","Aachen, Schmithof Schule",,"50.688633000000","6.168359000000",0,,0,"H.2"
000000168501,"","Aachen, Schmithof Schmithofer Straße",,"50.691578000000","6.159274000000",0,,0,"H.1"
000000168502,"","Aachen, Schmithof Schmithofer Straße",,"50.691217000000","6.159197000000",0,,0,"H.2"
000000168701,"","Aachen, Sief Radermacher",,"50.691735000000","6.155739000000",0,,0,"H.1"
000000168702,"","Aachen, Sief Radermacher",,"50.692374000000","6.155035000000",0,,0,"H.2"
000000168703,"","Aachen, Sief Radermacher",,"50.692558000000","6.154797000000",0,,0,"H.3"
000000168901,"","Aachen, Sief Schule",,"50.694838000000","6.147266000000",0,,0,"H.1"
000000168902,"","Aachen, Sief Schule",,"50.694879000000","6.147490000000",0,,0,"H.2"
000000168903,"","Aachen, Sief Schule",,"50.694465000000","6.147105000000",0,,0,"H.3"
000000169101,"","Aachen, Sief Wilbank",,"50.688012000000","6.146590000000",0,,0,"H.1"
000000169301,"","Aachen, Schmithof Vennbahn",,"50.690767000000","6.164365000000",0,,0,"H.1"
000000169302,"","Aachen, Schmithof Vennbahn",,"50.690843000000","6.164176000000",0,,0,"H.2"
000000169501,"","Aachen, Eulersweg",,"50.799175000000","6.098886000000",0,,0,"H.1"
000000169502,"","Aachen, Eulersweg",,"50.799241000000","6.098314000000",0,,0,"H.2"
000000169701,"","Aachen, Purweider Weg",,"50.790570000000","6.085711000000",0,,0,"H.1"
000000169702,"","Aachen, Purweider Weg",,"50.790686000000","6.085675000000",0,,0,"H.2"
000000169901,"","Aachen, Sonnenweg",,"50.801154000000","6.095641000000",0,,0,"H.1"
000000169902,"","Aachen, Sonnenweg",,"50.801192000000","6.095752000000",0,,0,"H.2"
000000170101,"","Aachen, Soers",,"50.797939000000","6.083606000000",0,,0,"H.1"
000000170102,"","Aachen, Soers",,"50.797888000000","6.083751000000",0,,0,"H.2"
000000170301,"","Aachen, Soers Kloster",,"50.791978000000","6.084076000000",0,,0,"H.1"
000000170302,"","Aachen, Soers Kloster",,"50.792329000000","6.084438000000",0,,0,"H.2"
000000170501,"","Aachen, Soers Schule",,"50.801285000000","6.081453000000",0,,0,"H.1"
000000170502,"","Aachen, Soers Schule",,"50.801251000000","6.081526000000",0,,0,"H.2"
000000170701,"","Aachen, Soerser Au",,"50.789110000000","6.089179000000",0,,0,"H.1"
000000170702,"","Aachen, Soerser Au",,"50.788713000000","6.089488000000",0,,0,"H.2"
000000170901,"","Aachen, Soerser Winkel",,"50.792763000000","6.089945000000",0,,0,"H.1"
000000170902,"","Aachen, Soerser Winkel",,"50.792793000000","6.090057000000",0,,0,"H.2"
000000171101,"","Aachen, Diepenbenden",,"50.746412000000","6.087831000000",0,,0,"H.1"
000000171102,"","Aachen, Diepenbenden",,"50.745964000000","6.087902000000",0,,0,"H.2"
000000171103,"","Aachen, Diepenbenden",,"50.746147000000","6.087678000000",0,,0,"H.3"
000000171301,"","Aachen, Giselastraße",,"50.755635000000","6.087230000000",0,,0,"H.1"
000000171302,"","Aachen, Giselastraße",,"50.754439000000","6.087971000000",0,,0,"H.2"
000000171501,"","Aachen, Goldbachstraße",,"50.753219000000","6.085934000000",0,,0,"H.1"
000000171502,"","Aachen, Goldbachstraße",,"50.753043000000","6.085732000000",0,,0,"H.2"
000000171901,"","Aachen, Jahnplatz",,"50.750073000000","6.087448000000",0,,0,"H.1"
000000171902,"","Aachen, Jahnplatz",,"50.749959000000","6.086846000000",0,,0,"H.2"
000000171903,"","Aachen, Jahnplatz",,"50.749263000000","6.087101000000",0,,0,"H.3"
000000172101,"","Aachen, Ronheider Weg",,"50.758166000000","6.085215000000",0,,0,"H.1"
000000172102,"","Aachen, Ronheider Weg",,"50.757365000000","6.085180000000",0,,0,"H.2"
000000172103,"","Aachen, Ronheider Weg",,"50.757659000000","6.084339000000",0,,0,"H.3"
000000172104,"","Aachen, Ronheider Weg",,"50.757058000000","6.084774000000",0,,0,"H.4"
000000172301,"","Aachen, St. Vither Straße",,"50.752929000000","6.090518000000",0,,0,"H.1"
000000172302,"","Aachen, St. Vither Straße",,"50.752812000000","6.090157000000",0,,0,"H.2"
000000172501,"","Aachen, Zweiweiherweg",,"50.743197000000","6.086599000000",0,,0,"H.1"
000000172502,"","Aachen, Zweiweiherweg",,"50.743369000000","6.086631000000",0,,0,"H.2"
000000172701,"","Aachen, Vaalserquartier Keltenstraße",,"50.768834000000","6.028537000000",0,,0,"H.1"
000000172702,"","Aachen, Vaalserquartier Keltenstraße",,"50.769044000000","6.027602000000",0,,0,"H.2"
000000172901,"","Aachen, Kullen",,"50.773578000000","6.035400000000",0,,0,"H.1"
000000172902,"","Aachen, Kullen",,"50.773346000000","6.035117000000",0,,0,"H.2"
000000173501,"","Aachen, Reutershag",,"50.769737000000","6.039643000000",0,,0,"H.1"
000000173502,"","Aachen, Reutershag",,"50.769863000000","6.039635000000",0,,0,"H.2"
000000173701,"","Aachen, Vaalserquartier Schmiedgasse",,"50.768807000000","6.034553000000",0,,0,"H.1"
000000173702,"","Aachen, Vaalserquartier Schmiedgasse",,"50.768663000000","6.033867000000",0,,0,"H.2"
000000173901,"","Aachen, Steinbergweg",,"50.775409000000","6.038434000000",0,,0,"H.1"
000000173902,"","Aachen, Steinbergweg",,"50.774525000000","6.038319000000",0,,0,"H.2"
000000174101,"","Aachen, Steppenberg",,"50.769466000000","6.043859000000",0,,0,"H.1"
000000174102,"","Aachen, Steppenberg",,"50.769681000000","6.042753000000",0,,0,"H.2"
000000174301,"","Aachen, Uniklinik",,"50.775638000000","6.044250000000",0,,0,"H.1"
000000174302,"","Aachen, Uniklinik",,"50.775582000000","6.044523000000",0,,0,"H.2"
000000174501,"","Aachen, Vaalserquartier Vaals Grenze",,"50.770610000000","6.026595000000",0,,0,"H.1"
000000174701,"","Aachen, Verlautenheide Gut-Knapp-Straße",,"50.798326000000","6.153129000000",0,,0,"H.1"
000000174702,"","Aachen, Verlautenheide Gut-Knapp-Straße",,"50.798411000000","6.153294000000",0,,0,"H.2"
000000174801,"","Aachen, Verlautenheide Im Reichswald",,"50.793159000000","6.165875000000",0,,0,"H.1"
000000174802,"","Aachen, Verlautenheide Im Reichswald",,"50.793496000000","6.166068000000",0,,0,"H.2"
000000174901,"","Aachen, Verlautenheide Endstraße",,"50.796539000000","6.155083000000",0,,0,"H.1"
000000174902,"","Aachen, Verlautenheide Endstraße",,"50.796545000000","6.155338000000",0,,0,"H.2"
000000174903,"","Aachen, Verlautenheide Endstraße",,"50.797094000000","6.154978000000",0,,0,"H.3"
000000174904,"","Aachen, Verlautenheide Endstraße",,"50.797247000000","6.154983000000",0,,0,"H.4"
000000175001,"","Aachen, Verlautenheide Kelmesbergweg",,"50.791718000000","6.163947000000",0,,0,"H.1"
000000175101,"","Aachen, Verlautenheide Quinx",,"50.795016000000","6.164187000000",0,,0,"H.1"
000000175102,"","Aachen, Verlautenheide Quinx",,"50.794778000000","6.164755000000",0,,0,"H.2"
000000175201,"","Aachen, Verlautenheide Waldstraße",,"50.793715000000","6.161371000000",0,,0,"H.1"
000000175301,"","Aachen, Vetschau Bocholtzer Straße",,"50.814266000000","6.042606000000",0,,0,"H.1"
000000175302,"","Aachen, Vetschau Bocholtzer Straße",,"50.814359000000","6.042699000000",0,,0,"H.2"
000000175401,"","Aachen, Verlautenheide Schwester-Zita-Weg",,"50.793560000000","6.157236000000",0,,0,"H.1"
000000175402,"","Aachen, Verlautenheide Schwester-Zita-Weg",,"50.793903000000","6.156932000000",0,,0,"H.2"
000000175501,"","Aachen, Vetschau",,"50.816231000000","6.041700000000",0,,0,"H.1"
000000175502,"","Aachen, Vetschau",,"50.816183000000","6.041902000000",0,,0,"H.2"
000000175701,"","Aachen, Walheim Albert-Einstein-Straße",,"50.703819000000","6.174753000000",0,,0,"H.1"
000000175702,"","Aachen, Walheim Albert-Einstein-Straße",,"50.703833000000","6.174554000000",0,,0,"H.2"
000000176001,"","Aachen, Walheim Freizeitgelände",,"50.704797000000","6.181337000000",0,,0,"H.1"
000000176002,"","Aachen, Walheim Freizeitgelände",,"50.704776000000","6.181211000000",0,,0,"H.2"
000000176101,"","Aachen, Friesenrath",,"50.698220000000","6.182355000000",0,,0,"H.1"
000000176102,"","Aachen, Friesenrath",,"50.698677000000","6.181931000000",0,,0,"H.2"
000000176301,"","Aachen, Hahn Kirche",,"50.711392000000","6.197800000000",0,,0,"H.1"
000000176302,"","Aachen, Hahn Kirche",,"50.711337000000","6.197747000000",0,,0,"H.2"
000000176501,"","Aachen, Hahn Steinbruch",,"50.709026000000","6.190660000000",0,,0,"H.1"
000000176502,"","Aachen, Hahn Steinbruch",,"50.708841000000","6.191195000000",0,,0,"H.2"
000000176701,"","Aachen, Walheim Hasbach",,"50.703908000000","6.170243000000",0,,0,"H.1"
000000176702,"","Aachen, Walheim Hasbach",,"50.703672000000","6.169776000000",0,,0,"H.2"
000000176703,"","Aachen, Walheim Hasbach",,"50.704290000000","6.169696000000",0,,0,"H.3"
000000176901,"","Aachen, Walheim Hochhausring",,"50.709729000000","6.177712000000",0,,0,"H.1"
000000176902,"","Aachen, Walheim Hochhausring",,"50.709484000000","6.177996000000",0,,0,"H.2"
000000177101,"","Aachen, Walheim Mütschenpfuhl",,"50.701942000000","6.171155000000",0,,0,"H.1"
000000177102,"","Aachen, Walheim Mütschenpfuhl",,"50.701223000000","6.170816000000",0,,0,"H.2"
000000177501,"","Aachen, Walheim",,"50.707779000000","6.183000000000",0,,0,"H.1"
000000177502,"","Aachen, Walheim",,"50.707556000000","6.182688000000",0,,0,"H.2"
000000177503,"","Aachen, Walheim",,"50.707481000000","6.181842000000",0,,0,"H.3"
000000177504,"","Aachen, Walheim",,"50.706753000000","6.182226000000",0,,0,"H.4"
000000177701,"","Aachen, Walheim Friedhof",,"50.710269000000","6.175867000000",0,,0,"H.1"
000000177702,"","Aachen, Walheim Friedhof",,"50.710215000000","6.175884000000",0,,0,"H.2"
000000177901,"","Aachen, Walheim Prämienstraße",,"50.704774000000","6.177783000000",0,,0,"H.1"
000000177902,"","Aachen, Walheim Prämienstraße",,"50.704839000000","6.177836000000",0,,0,"H.2"
000000178101,"","Aachen, Walheim Schmittchen",,"50.712144000000","6.185345000000",0,,0,"H.1"
000000178102,"","Aachen, Walheim Schmittchen",,"50.712604000000","6.185360000000",0,,0,"H.2"
000000178301,"","Aldenhoven, Alter Bahnhof",,"50.892509000000","6.275170000000",0,,0,""
000000178302,"","Aldenhoven, Alter Bahnhof",,"50.892661000000","6.275455000000",0,,0,""
000000178501,"","Aldenhoven, Industriestraße",,"50.900348000000","6.302278000000",0,,0,""
000000178502,"","Aldenhoven, Industriestraße",,"50.900569000000","6.303289000000",0,,0,""
000000178701,"","Aldenhoven, Jülicher Straße",,"50.898383000000","6.293189000000",0,,0,""
000000178702,"","Aldenhoven, Jülicher Straße",,"50.897769000000","6.292328000000",0,,0,""
000000178901,"","Aldenhoven, Blumenstraße",,"50.893434000000","6.279041000000",0,,0,""
000000178902,"","Aldenhoven, Blumenstraße",,"50.893595000000","6.279426000000",0,,0,""
000000179101,"","Aldenhoven, Friedhof",,"50.897271000000","6.280168000000",0,,0,""
000000179102,"","Aldenhoven, Friedhof",,"50.897462000000","6.279901000000",0,,0,""
000000179301,"","Aldenhoven, Kapelle",,"50.894531000000","6.282632000000",0,,0,""
000000179302,"","Aldenhoven, Kapelle",,"50.894325000000","6.282687000000",0,,0,""
000000179501,"","Aldenhoven, Kirche",,"50.895529000000","6.283001000000",0,,0,"A. Turm"
000000179502,"","Aldenhoven, Kirche",,"50.895551000000","6.283198000000",0,,0,""
000000179701,"","Aldenhoven, Markt",,"50.895403000000","6.288014000000",0,,0,""
000000179702,"","Aldenhoven, Markt",,"50.895350000000","6.288060000000",0,,0,""
000000179901,"","Aldenhoven, Niedermerzer Straße",,"50.892884000000","6.282586000000",0,,0,""
000000179902,"","Aldenhoven, Niedermerzer Straße",,"50.893114000000","6.283212000000",0,,0,""
000000180101,"","Aldenhoven, Patterner Ring",,"50.888670000000","6.275067000000",0,,0,""
000000180102,"","Aldenhoven, Patterner Ring",,"50.888769000000","6.275075000000",0,,0,""
000000180301,"","Aldenhoven, Dürboslar",,"50.904138000000","6.257292000000",0,,0,""
000000180302,"","Aldenhoven, Dürboslar",,"50.904211000000","6.257330000000",0,,0,""
000000180501,"","Aldenhoven, Dürboslar Heerstraße",,"50.905107000000","6.261389000000",0,,0,""
000000180502,"","Aldenhoven, Dürboslar Heerstraße",,"50.904944000000","6.260972000000",0,,0,""
000000180901,"","Aldenhoven, Abzw. Niedermerz",,"50.888320000000","6.259470000000",0,,0,""
000000180902,"","Aldenhoven, Abzw. Niedermerz",,"50.888133000000","6.258659000000",0,,0,""
000000181101,"","Aldenhoven, Gewerbegebiet Ost",,"50.902697000000","6.308970000000",0,,0,""
000000181102,"","Aldenhoven, Gewerbegebiet Ost",,"50.902804000000","6.309732000000",0,,0,""
000000181401,"","Aldenhoven, Niedermerz Weiler Hausen",,"50.872601000000","6.267973000000",0,,0,""
000000181402,"","Aldenhoven, Niedermerz Weiler Hausen",,"50.872573000000","6.267946000000",0,,0,""
000000181501,"","Aldenhoven, Freialdenhoven Post",,"50.928730000000","6.249141000000",0,,0,""
000000181502,"","Aldenhoven, Freialdenhoven Post",,"50.928641000000","6.248888000000",0,,0,""
000000181701,"","Aldenhoven, Freialdenhoven Lindenend",,"50.927400000000","6.245137000000",0,,0,""
000000181702,"","Aldenhoven, Freialdenhoven Lindenend",,"50.927345000000","6.245236000000",0,,0,""
000000181901,"","Aldenhoven, Niedermerz Am Merzbach",,"50.881068000000","6.266183000000",0,,0,""
000000181902,"","Aldenhoven, Niedermerz Am Merzbach",,"50.880220000000","6.264143000000",0,,0,""
000000182101,"","Aldenhoven, Niedermerz Ortsmitte",,"50.883780000000","6.266394000000",0,,0,""
000000182102,"","Aldenhoven, Niedermerz Ortsmitte",,"50.884140000000","6.266771000000",0,,0,""
000000182301,"","Aldenhoven, Schleiden Am Nonnenhof",,"50.883879000000","6.247153000000",0,,0,""
000000182302,"","Aldenhoven, Schleiden Am Nonnenhof",,"50.883388000000","6.245829000000",0,,0,""
000000182501,"","Aldenhoven, Schleiden Kreuz",,"50.883960000000","6.242905000000",0,,0,""
000000182502,"","Aldenhoven, Schleiden Kreuz",,"50.884240000000","6.242238000000",0,,0,""
000000182701,"","Aldenhoven, Schleiden Siersdorfer Straße",,"50.885921000000","6.237828000000",0,,0,""
000000182702,"","Aldenhoven, Schleiden Siersdorfer Straße",,"50.885930000000","6.237998000000",0,,0,""
000000183101,"","Aldenhoven, Siersdorf Frauenrath",,"50.897408000000","6.226411000000",0,,0,""
000000183102,"","Aldenhoven, Siersdorf Frauenrath",,"50.897499000000","6.226462000000",0,,0,""
000000183301,"","Aldenhoven, Siersdorf Friedhof",,"50.894991000000","6.221221000000",0,,0,""
000000183302,"","Aldenhoven, Siersdorf Friedhof",,"50.895027000000","6.221219000000",0,,0,""
000000183501,"","Aldenhoven, Siersdorf Kirche",,"50.899029000000","6.223467000000",0,,0,""
000000183502,"","Aldenhoven, Siersdorf Kirche",,"50.899091000000","6.223581000000",0,,0,""
000000183701,"","Aldenhoven, Siersdorf Post",,"50.896217000000","6.224348000000",0,,0,""
000000183702,"","Aldenhoven, Siersdorf Post",,"50.896416000000","6.224407000000",0,,0,""
000000183901,"","Aldenhoven, Siersdorf Schlösser",,"50.898616000000","6.231047000000",0,,0,""
000000183902,"","Aldenhoven, Siersdorf Schlösser",,"50.898654000000","6.230746000000",0,,0,""
000000184101,"","Aldenhoven, Siersdorf Siedlung",,"50.895521000000","6.229007000000",0,,0,""
000000184102,"","Aldenhoven, Siersdorf Siedlung",,"50.895818000000","6.229080000000",0,,0,""
000000184301,"","Alsdorf, Im Brühl Kirche",,"50.879139000000","6.164668000000",0,,0,"H.1"
000000184501,"","Alsdorf, Gesamtschule",,"50.880916000000","6.170418000000",0,,0,"H.1"
000000184502,"","Alsdorf, Gesamtschule",,"50.881408000000","6.171398000000",0,,0,"H.2"
000000184503,"","Alsdorf, Gesamtschule",,"50.880931000000","6.172507000000",0,,0,"H.5"
000000184701,"","Alsdorf, Im Brühl",,"50.882385000000","6.167571000000",0,,0,"H.1"
000000185901,"","Alsdorf, Sportplatz",,"50.878082000000","6.169268000000",0,,0,"H.1"
000000185902,"","Alsdorf, Sportplatz",,"50.877943000000","6.169489000000",0,,0,"H.2"
000000186301,"","Alsdorf, Anna I",,"50.872281000000","6.159697000000",0,,0,"H.1"
000000186302,"","Alsdorf, Anna I",,"50.872247000000","6.159756000000",0,,0,"H.2"
000000186501,"","Alsdorf, Cäcilienstraße",,"50.878386000000","6.165851000000",0,,0,"H.1"
000000187901,"","Alsdorf, Siedlung Ost Feuerwehrhaus",,"50.874443000000","6.173156000000",0,,0,"H.1"
000000187902,"","Alsdorf, Siedlung Ost Feuerwehrhaus",,"50.874383000000","6.173288000000",0,,0,"H.2"
000000188101,"","Alsdorf, Schaufenberg Franzstraße",,"50.873791000000","6.176693000000",0,,0,"H.1"
000000188102,"","Alsdorf, Schaufenberg Franzstraße",,"50.873725000000","6.176555000000",0,,0,"H.2"
000000188301,"","Alsdorf, Schaufenberg Gewerbepark",,"50.871772000000","6.184676000000",0,,0,"H.1"
000000188302,"","Alsdorf, Schaufenberg Gewerbepark",,"50.872000000000","6.184833000000",0,,0,"H.2"
000000188501,"","Alsdorf, Rathaus",,"50.873907000000","6.166635000000",0,,0,"H.1"
000000188502,"","Alsdorf, Rathaus",,"50.873837000000","6.167435000000",0,,0,"H.2"
000000188701,"","Alsdorf, Siedlung Ost",,"50.869471000000","6.180664000000",0,,0,"H.1"
000000188702,"","Alsdorf, Siedlung Ost",,"50.869567000000","6.180530000000",0,,0,"H.2"
000000188901,"","Alsdorf, Schaufenberg Hagfeld",,"50.874191000000","6.186918000000",0,,0,"H.1"
000000188902,"","Alsdorf, Schaufenberg Hagfeld",,"50.874188000000","6.186762000000",0,,0,"H.2"
000000189301,"","Alsdorf, Siedlung Ost Pommernstraße",,"50.870115000000","6.179047000000",0,,0,"H.1"
000000189302,"","Alsdorf, Siedlung Ost Pommernstraße",,"50.869927000000","6.179059000000",0,,0,"H.2"
000000189501,"","Alsdorf, Schaufenberg Am Kreuzberg",,"50.874996000000","6.179250000000",0,,0,"H.1"
000000189502,"","Alsdorf, Schaufenberg Am Kreuzberg",,"50.875014000000","6.180400000000",0,,0,"H.2"
000000191101,"","Alsdorf, Bettendorf",,"50.886219000000","6.202689000000",0,,0,"H.1"
000000191102,"","Alsdorf, Bettendorf",,"50.886213000000","6.202831000000",0,,0,"H.2"
000000191301,"","Alsdorf, Am Neuen Markt",,"50.858967000000","6.185206000000",0,,0,"H.1"
000000191302,"","Alsdorf, Am Neuen Markt",,"50.858918000000","6.185422000000",0,,0,"H.2"
000000191501,"","Alsdorf, Begau Bahnübergang",,"50.852384000000","6.199471000000",0,,0,""
000000191502,"","Alsdorf, Begau Bahnübergang",,"50.852384000000","6.199471000000",0,,0,""
000000191701,"","Alsdorf, Blumenrath Albert-Schweitzer-Straße",,"50.855163000000","6.194232000000",0,,0,"H.1"
000000191702,"","Alsdorf, Blumenrath Albert-Schweitzer-Straße",,"50.855375000000","6.195185000000",0,,0,"H.2"
000000191801,"","Alsdorf, Blumenrath Montanstr./Poststraße",,"50.856349000000","6.197301000000",0,,0,"H.1"
000000191901,"","Alsdorf, Blumenrath Holbeinstraße",,"50.856918000000","6.191256000000",0,,0,"H.1"
000000191902,"","Alsdorf, Blumenrath Holbeinstraße",,"50.857382000000","6.190361000000",0,,0,"H.2"
000000193901,"","Alsdorf, Nordfriedhof",,"50.887360000000","6.148014000000",0,,0,"H.1"
000000193902,"","Alsdorf, Nordfriedhof",,"50.887562000000","6.148007000000",0,,0,"H.2"
000000194301,"","Alsdorf, Im Haag",,"50.881991000000","6.153248000000",0,,0,""
000000194302,"","Alsdorf, Im Haag",,"50.881244000000","6.154353000000",0,,0,""
000000194501,"","Alsdorf, Hoengen Konrad-Zuse-Straße",,"50.873550000000","6.223606000000",0,,0,"H.1"
000000194502,"","Alsdorf, Hoengen Konrad-Zuse-Straße",,"50.873555000000","6.223805000000",0,,0,"H.2"
000000194901,"","Alsdorf, Schleibach Schleibacher Hof",,"50.853735000000","6.141726000000",0,,0,"H.1"
000000194902,"","Alsdorf, Schleibach Schleibacher Hof",,"50.853569000000","6.141565000000",0,,0,"H.2"
000000195101,"","Alsdorf, Ofden Überheide",,"50.860503000000","6.143316000000",0,,0,"H.1"
000000195102,"","Alsdorf, Ofden Überheide",,"50.860418000000","6.143165000000",0,,0,"H.2"
000000195301,"","Alsdorf, Warden Feld",,"50.864051000000","6.216012000000",0,,0,"H.1"
000000195302,"","Alsdorf, Warden Feld",,"50.864406000000","6.215451000000",0,,0,"H.2"
000000195501,"","Alsdorf, Hoengen Hans-Böckler-Straße",,"50.862181000000","6.205535000000",0,,0,"H.1"
000000195502,"","Alsdorf, Hoengen Hans-Böckler-Straße",,"50.862591000000","6.206136000000",0,,0,"H.2"
000000195701,"","Alsdorf, Hoengen Altenheim",,"50.870568000000","6.206071000000",0,,0,"H.1"
000000195901,"","Alsdorf, Hoengen Bendenstraße",,"50.871112000000","6.211883000000",0,,0,"H.1"
000000195902,"","Alsdorf, Hoengen Bendenstraße",,"50.870824000000","6.212240000000",0,,0,"H.2"
000000196101,"","Alsdorf, Hoengen Goethestraße",,"50.867247000000","6.211273000000",0,,0,"H.1"
000000196102,"","Alsdorf, Hoengen Goethestraße",,"50.867899000000","6.212556000000",0,,0,"H.2"
000000196301,"","Alsdorf, Hoengen Kirche",,"50.872743000000","6.210043000000",0,,0,""
000000196302,"","Alsdorf, Hoengen Kirche",,"50.872715000000","6.210080000000",0,,0,"H.2"
000000196501,"","Alsdorf, Hoengen Langstraße",,"50.868100000000","6.205920000000",0,,0,"H.1"
000000196701,"","Alsdorf, Hoengen Marienstraße",,"50.869281000000","6.204172000000",0,,0,"H.1"
000000196901,"","Alsdorf, Hoengen Markt",,"50.871167000000","6.208552000000",0,,0,"H.1"
000000197101,"","Alsdorf, Hoengen Schillerstraße",,"50.865543000000","6.208845000000",0,,0,"H.1"
000000197102,"","Alsdorf, Hoengen Schillerstraße",,"50.866057000000","6.209653000000",0,,0,"H.2"
000000197501,"","Alsdorf, Annapark Bahnhof (Bus)",,"50.870661000000","6.157052000000",0,,0,"H.1"
000000197502,"","Alsdorf, Annapark Bahnhof (Bus)",,"50.871024000000","6.157214000000",0,,0,"H.2"
